,timestamp,u0,u1,u2,u3,vx,vy,vz,q0,q1,q2,q3,ang_vel_x,ang_vel_y,ang_vel_z,accelerometer_m_s2[0],accelerometer_m_s2[1],accelerometer_m_s2[2],ang_acc_x,ang_acc_y,ang_acc_z,old_index
0,14490000.0,1743.5,1741.5,1743.0,1741.5,0.07617358282208443,-0.01290744535624981,-0.46024585962295533,0.7060804239341191,-0.0009312665185591738,0.0013754447614441492,0.7081296954836164,0.03187831677496433,-0.014719170362999042,-0.00044366175037187833,0.03860650584101677,0.0038907650159671903,-10.701783657073975,-0.2620210349559784,0.16707730293273926,-0.08756957203149796,155
1,14500000.0,1742.4,1740.4,1741.8,1740.2,0.07596293479204178,-0.01288050014525652,-0.4682369351387024,0.7060785939296087,-0.000760511276894249,0.0014423173755252112,0.7081316461165746,0.031827233731746674,-0.013409375213086605,-0.000270125106908381,0.026336219161748886,1.8714175098466512e-07,-10.722432136535645,-0.20971834659576416,0.16236988455057144,-0.03298217838164419,156
2,14510000.0,1741.3,1739.3,1740.6,1738.9,0.07575228676199913,-0.012853554934263229,-0.4762280106544495,0.7060797984401385,-0.0006210147621459328,0.001505051821974727,0.7081303919355074,0.030682115194698174,-0.010872564278542995,0.0014142967217291396,0.038307229056954384,-0.0065838691079989076,-10.666767597198486,-0.09878158941864967,0.18391559273004532,0.05859685281757265,157
3,14520000.0,1740.2,1738.2,1739.4,1737.6,0.07554163873195648,-0.01282660972326994,-0.48421908617019654,0.7060810029506683,-0.0004815182473976165,0.0015677862684242427,0.7081291377544403,0.028995994478464127,-0.010983931832015514,-0.00028574117459356785,0.02992752566933632,-0.026336034759879112,-10.63743782043457,-0.09120076894760132,0.16430305689573288,0.0434110714122653,158
4,14530000.0,1739.1,1737.1,1738.2,1736.3,0.07533099070191383,-0.012799664512276649,-0.4922101616859436,0.7060822074611982,-0.00034202173264930025,0.0016305207148737584,0.7081278835733732,0.028375864028930664,-0.009859307824323574,-0.0036605101777240634,0.06254852935671806,-0.01316792395664379,-10.614393949508667,-0.10915456712245941,0.08563505299389362,-0.1506489822641015,159
5,14540000.0,1738.0,1736.0,1737.0,1735.0,0.07512034267187119,-0.01277271930128336,-0.5002012372016906,0.706083411971728,-0.000202525217900984,0.0016932551613232742,0.708126629392306,0.025514502078294754,-0.012162535451352596,-0.0017209163634106517,0.041299981996417046,0.0017958354437723756,-10.54526138305664,-0.1485748551785946,-0.007401077076792717,-0.1582077331840992,160
6,14550000.0,1735.7,1733.8,1734.8,1733.0,0.07490969464182853,-0.01274577409029007,-0.5081923127174377,0.7060841470956802,-7.673791697015986e-05,0.001756051482516341,0.7081257551908493,0.02493213986357053,-0.010262868677576384,0.0007427009598662453,0.03471592627465725,-0.008379523642361164,-10.50545883178711,-0.1716744601726532,-0.01777106523513794,0.08620477095246315,161
7,14560000.0,1733.4,1731.6,1732.6,1731.0,0.07469904661178589,-0.01271882887929678,-0.5161833882331848,0.7060845692952474,3.990990808233619e-05,0.0018188890535384417,0.7081251343091329,0.026522913947701454,-0.010078084655106068,-0.0014400709187611938,0.04608839005231857,-0.013766479678452015,-10.437521934509277,-0.056732939556241035,0.04698784649372101,0.12441807053983212,162
8,14570000.0,1731.1,1729.4,1730.4,1729.0,0.07448839858174323,-0.01269188366830349,-0.5241744637489318,0.7060849914948145,0.00015655773313483223,0.0018817266245605424,0.7081245134274164,0.025554167727629345,-0.0076964786276221275,-0.002422103328475108,0.043095638044178486,-0.018255608156323433,-10.437821865081787,0.025861633010208607,0.11778560280799866,-0.050601767376065254,163
9,14580000.0,1728.8,1727.2,1728.2,1727.0,0.0742050677537918,-0.012509996183216571,-0.5301196241378784,0.7060854136943817,0.0002732055581873283,0.0019445641955826432,0.7081238925457001,0.02449773997068405,-0.007162687834352255,-0.001037993817590177,0.05746084079146385,0.010774089954793453,-10.336967468261719,-0.02076589036732912,0.1475490853190422,-0.0651411775033921,164
10,14590000.0,1726.5,1725.0,1726.0,1725.0,0.0738127127289772,-0.012095695286989212,-0.5329959118366241,0.7060858358939489,0.0003898533832398243,0.002007401766604744,0.7081232716639837,0.024385652194420498,-0.006254994077607989,-0.00039151712553575635,0.06643909588456154,0.014365391107276082,-10.29866075515747,-0.053545981645584106,0.10380002111196518,0.04508179542608559,165
11,14600000.0,1724.2,1722.8,1723.8,1723.0,0.0734203577041626,-0.011681394390761853,-0.5358721995353699,0.7060861129027146,0.0004905539860304159,0.002083142610410085,0.7081226889903729,0.02467604959383607,-0.005595797207206488,-0.0010771345987450331,0.019153613597154617,-0.010773729998618364,-10.242395877838135,-0.03957695513963699,0.06576292216777802,0.03901594132184982,166
12,14610000.0,1721.9,1720.6,1721.6,1721.0,0.07302800267934799,-0.011267093494534492,-0.5387484872341156,0.7060863536137801,0.0005872677832555312,0.0021621092724112365,0.7081221158687885,0.025744417449459434,-0.004430017666891217,-0.001113645572331734,0.03860650071874261,-0.013766482239589095,-10.163986206054688,0.03249139338731766,0.09132996201515198,0.004940772661939263,167
13,14620000.0,1719.6,1718.4,1719.4,1719.0,0.07263564765453338,-0.010852792598307133,-0.5416247749328613,0.7060865943248456,0.0006839815804806466,0.0022410759344123877,0.7081215427472041,0.024398427456617355,-0.0014496113872155547,-0.0007616612710990012,0.07422026991844177,-0.008379530161619186,-10.117898941040039,0.05910572409629822,0.15910552442073822,0.018532417714595795,168
14,14630000.0,1717.3,1716.2,1717.2,1717.0,0.07224329262971878,-0.010438491702079774,-0.544501062631607,0.706086835035911,0.000780695377705762,0.002320042596413539,0.7081209696256198,0.024139768133560818,0.00012685868205153383,-0.00025069440016523004,0.06524200923740864,-0.010474456707015634,-10.029012680053711,0.016245851176790893,0.1996509600430727,0.058174870908260345,169
15,14640000.0,1715.0,1714.0,1715.0,1715.0,0.07185093760490417,-0.010024190805852413,-0.5473773503303527,0.7060870757469764,0.0008774091749308775,0.0023990092584146904,0.7081203965040354,0.02678076922893524,0.00104402971919626,-0.00028716004453599453,0.07182605564594269,0.0023943765554577112,-9.993399620056152,0.054082156624644995,0.1823219135403633,0.054349048994481564,170
16,14650000.0,1714.4,1713.5,1714.7,1714.4,0.07145858258008957,-0.009609889909625054,-0.5502536380290985,0.706088125705719,0.000964464525168296,0.0024788743758108467,0.7081189677119255,0.024527501004437607,9.10890618494401e-05,-0.0013970335518630843,0.04249708727002144,-0.0005983777809888124,-9.942522764205933,0.029167810454964638,0.05488741397857666,-0.03201990295201541,171
17,14660000.0,1713.8,1713.0,1714.4,1713.8,0.07106622755527496,-0.009195589013397693,-0.5531299257278443,0.706089715162913,0.0010450809107472498,0.0025593384634703398,0.7081169684727987,0.024010637775063515,0.0007447287207469344,-0.00025641167303547263,0.07900865375995636,-0.040701255202293396,-9.889251708984375,-0.07577566988766193,-0.021977452095597982,-0.0367718068882823,172
18,14670000.0,1713.2,1712.5,1714.1,1713.2,0.07067387253046035,-0.008781288117170334,-0.55600621342659,0.706091304620107,0.001125697296326204,0.002639802551129833,0.7081149692336718,0.02456714492291212,0.0005964064815392097,-0.0017007591571503629,0.08559272438287735,0.004489300714340061,-9.844959735870361,-0.043193215038627386,-0.0032969648018479347,-0.008037854917347428,173
19,14680000.0,1712.6,1712.0,1713.8,1712.6,0.07024854583584744,-0.008421724358492571,-0.5572832641394242,0.706092894077301,0.0012063136819051579,0.002720266638789326,0.708112969994545,0.024531785398721695,-1.3776281775790267e-05,-0.002240973524749279,0.05327099189162254,-0.014963591354899108,-9.789294242858887,0.0036539878346957266,-0.014865001197904348,-0.05797174759209156,174
20,14690000.0,1712.0,1711.5,1713.5,1712.0,0.06977376163653705,-0.008144266306139205,-0.5561614593733912,0.706094483534495,0.0012869300674841118,0.002800730726448819,0.7081109707554182,0.021266236901283264,0.0026067958679050207,-0.0009568446839693934,0.031723178923130035,-0.014963591238483787,-9.72764253616333,-0.10910468312795274,0.06872098613530396,-0.006301520857959986,175
21,14700000.0,1711.4,1711.0,1713.2,1711.4,0.06929897743722667,-0.007866808253785839,-0.5550396546073582,0.7060942879089942,0.001340946710955065,0.0028776361499554836,0.7081107359666091,0.019565744325518608,0.0015621604397892952,-0.0020722313784062862,0.05267243832349777,0.02753349207341671,-9.670183181762695,-0.19474396606286365,0.06452335665623346,-0.007479905461271603,176
22,14710000.0,1710.8,1710.5,1712.9,1710.8,0.06882419323791629,-0.007589350201432471,-0.5539178498413252,0.7060936460128198,0.001388313418899018,0.002953651907423941,0.7081109422903794,0.02110418677330017,0.0053821099766840534,-0.0021990154248972735,0.03531448170542717,-0.0011969325132668018,-9.671976089477539,-0.0944562740623951,0.1311378963291645,-0.03364779241383076,177
23,14720000.0,1710.2,1710.0,1712.6,1710.2,0.0683494090386059,-0.007311892149079105,-0.5527960450752921,0.7060930041166452,0.001435680126842971,0.0030296676648923983,0.7081111486141498,0.020294658839702606,0.007077699061483145,-0.001650882768444717,0.051475346088409424,-0.031124453991651535,-9.640253067016602,0.020290509797632694,0.21978182345628738,-0.010004512034356594,178
24,14730000.0,1709.6,1709.5,1712.3,1709.6,0.06787462483929552,-0.0070344340967257385,-0.5516742403092592,0.7060923622204707,0.001483046834786924,0.0031056834223608556,0.7081113549379202,0.0172336483374238,0.004662192116181055,-0.00014025572454556823,0.056263742968440056,-0.010175188770517707,-9.633670806884766,-0.1016645533964038,0.07386874780058861,0.07648726459592581,179
25,14740000.0,1709.0,1709.0,1712.0,1709.0,0.06739984063998512,-0.006756976044372372,-0.5505524355432262,0.7060917203242962,0.001530413542730877,0.0031816991798293134,0.7081115612616906,0.013925651088356972,0.004458688199520111,0.0014762909850105643,0.0454898402094841,-0.015562144108116627,-9.629478454589844,-0.2585453689098358,-0.09153925627470016,0.13504598289728165,180
26,14750000.0,1710.1,1710.0,1712.7,1710.0,0.06692505644067474,-0.006479517992019006,-0.5494306307771931,0.7060910509182856,0.0015772525803186,0.003263526282703074,0.7081117400756249,0.01511739008128643,0.006928015888358155,-0.0010107180569320917,0.04309563618153334,-0.020051273982971907,-9.617507457733154,-0.18488924205303192,0.01123112067580223,0.028394274413585663,181
27,14760000.0,1711.2,1711.0,1713.4,1711.0,0.06645027224136435,-0.006202059939665639,-0.5483088260111602,0.7060903631723844,0.0016237398376688361,0.003349227615847037,0.7081119005496685,0.01829665247350931,0.0065595973283052444,-0.0021535108680836856,0.037110134959220886,-0.009576640091836452,-9.674968719482422,0.08295013755559921,0.09160010330379009,-0.12382347136735916,182
28,14770000.0,1712.3,1712.0,1714.1,1712.0,0.06595810666680336,-0.005923185832798481,-0.547476851940155,0.7060896754264832,0.0016702270950190723,0.0034349289489910007,0.7081120610237122,0.01986990077421069,0.005146408453583717,-0.001329061487922445,0.05955576803535223,-0.03202227794099599,-9.675868272781372,0.23430467396974564,-0.018324656412005424,-0.08325403369963169,183
29,14780000.0,1713.4,1713.0,1714.8,1713.0,0.06539641559123993,-0.005638647507876158,-0.5478042006492615,0.7060889876805819,0.0017167143523693085,0.003520630282134964,0.7081122214977558,0.019750792533159256,0.00601561926305294,-0.0007350870000664145,0.053869545459747314,-0.020350543782114983,-9.68574333190918,0.16924577951431274,-0.05199097841978073,0.03283580392599106,184
30,14790000.0,1714.5,1714.0,1715.5,1714.0,0.0648347245156765,-0.0053541091829538345,-0.5481315493583679,0.7060882999346807,0.0017632016097195446,0.003606331615278927,0.7081123819717994,0.019695877097547054,0.007132853614166379,-0.000614175500231795,0.04309563618153334,-0.008080260478891432,-9.744401931762695,0.05559326626826078,0.037080805748701096,0.03217168478295207,185
31,14800000.0,1715.6,1715.0,1716.2,1715.0,0.06427303344011306,-0.005069570858031511,-0.5484588980674744,0.7060880606824701,0.0018113354559649122,0.003694269425151023,0.708112055605108,0.01989254169166088,0.006768655963242054,-0.0005069051403552294,0.03292027488350868,-0.02454039640724659,-9.759963989257812,-0.006356248279189458,0.054526411928236485,0.02929382584989071,186
32,14810000.0,1716.7,1716.0,1716.9,1716.0,0.06371134236454963,-0.0047850325331091886,-0.5487862467765808,0.7060884941707958,0.0018619391855529764,0.003785561950115318,0.7081109989773143,0.020528186423083145,0.007362138169507186,-0.0005925130875160297,0.059256499633193016,-0.039204880595207214,-9.801562309265137,0.023782165664670174,0.021308773662894964,0.020979006309062243,187
33,14820000.0,1717.8,1717.0,1717.6,1717.0,0.06314965128898621,-0.004500494208186864,-0.5491135954856873,0.7060889276591215,0.0019125429151410406,0.0038768544750796123,0.7081099423495206,0.019430426880717278,0.006288907956331968,-0.0010886407690122724,0.047884032130241394,-0.028730250895023346,-9.847352027893066,0.00015056257446607185,-0.025219401965538665,-0.01796749296287696,188
34,14830000.0,1718.9,1718.0,1718.3,1718.0,0.06258796021342278,-0.004215955883264542,-0.5494409441947937,0.706089361147447,0.001963146644729105,0.003968147000043907,0.7081088857217268,0.021957611044247944,0.004719372916345795,-0.0016522767061057189,0.05446809157729149,-0.007780984975397587,-9.841367244720459,0.04709277767688036,-0.0943224634975195,-0.05255638808012009,189
35,14840000.0,1720.0,1719.0,1719.0,1719.0,0.062026269137859344,-0.003931417558342218,-0.5497682929039002,0.7060897946357727,0.002013750374317169,0.004059439525008202,0.7081078290939331,0.019589178264141083,0.006224073003977537,-0.003162380773574114,0.04608839005231857,-0.023941848427057266,-9.855732917785645,0.06892270594835281,-0.08945085108280182,-0.07876799255609512,190
36,14850000.0,1720.2,1719.1,1719.2,1719.4,0.06146457806229591,-0.003646879233419895,-0.5500956416130066,0.7060939440360436,0.002059061904079639,0.004144380889976254,0.7081030492599194,0.018710029311478138,0.007413845354070266,-0.003543271915987134,0.04189853556454182,-0.023343296721577644,-9.909303665161133,-0.043045760132372365,0.04115530289709568,-0.06922313757240772,191
37,14860000.0,1720.4,1719.2,1719.4,1719.8,0.060902886986732484,-0.003362340908497572,-0.5504229903221131,0.7060980934363145,0.0021043734338421086,0.004229322254944306,0.7080982694259057,0.018050452694296837,0.004828372038900852,-0.001657084096223116,0.04309563338756561,-0.02513894997537136,-9.946712493896484,-0.09142772108316422,0.037052977830171585,0.008047833107411861,192
38,14870000.0,1720.6,1719.3,1719.6,1720.2,0.06026548728346825,-0.003112976113334298,-0.5509981560707092,0.7061022428365854,0.0021496849636045787,0.004314263619912358,0.708093489591892,0.018691216595470905,0.005623839097097516,-0.002455586683936417,0.06224925443530083,0.00239437457639724,-9.906609058380127,-0.03776185464812443,-0.015129733830690384,0.023435450275428593,193
39,14880000.0,1720.8,1719.4,1719.8,1720.6,0.059325253069400785,-0.003004305437207222,-0.5525645899772644,0.7061063922368563,0.0021949964933670484,0.004399204984880411,0.7080887097578782,0.019703222438693047,0.006941729690879583,-0.002413582755252719,0.06344634294509888,-0.008379533886909485,-9.945515632629395,0.034495543921366334,0.012900346890091896,0.0039511024951934814,194
40,14890000.0,1721.0,1719.5,1720.0,1721.0,0.05838501885533333,-0.0028956347610801457,-0.5541310238838196,0.7061105416371272,0.002240308023129518,0.004484146349848463,0.7080839299238645,0.017895318878193695,0.005413442927723129,-0.0038479186672096453,0.0520738922059536,0.007781330728903413,-9.955091953277588,0.006395230069756508,0.01833481900393962,-0.05818161554634571,195
41,14900000.0,1721.2,1719.6,1720.2,1721.4,0.05744478464126587,-0.0027869640849530696,-0.5556974577903747,0.7061121662457784,0.00228735936495165,0.0045570251531898975,0.7080816825230917,0.016795329749584198,0.003703238908201456,-0.0026285762432962656,0.028730422258377075,0.004788577556610107,-9.935938835144043,-0.090349106118083,-0.08677981980144978,-0.04627974587492645,196
42,14910000.0,1721.4,1719.7,1720.4,1721.8,0.05650455042719841,-0.0026782934088259935,-0.5572638916969299,0.7061131596565247,0.002334845659788698,0.004626888316124678,0.708080068230629,0.015504206220308939,0.004226568077380459,-0.002289209864102304,0.0520738922059536,-0.01975199207663536,-9.939529418945312,-0.12160574644804001,-0.09353736415505409,0.02741589699871838,197
43,14920000.0,1721.6,1719.8,1720.6,1722.2,0.05556431621313095,-0.0025696227326989173,-0.5588303256034851,0.7061141530672709,0.0023823319546257458,0.004696751479059458,0.7080784539381663,0.015565311536192894,0.0047308532521128654,-0.002309719566255808,0.035913024097681046,-0.009576634503901005,-9.937135696411133,-0.10002947598695755,-0.007521416991949081,0.04955867491662502,198
44,14930000.0,1721.8,1719.9,1720.8,1722.6,0.05462408199906349,-0.002460952056571841,-0.5603967595100403,0.7061151464780172,0.002429818249462793,0.004766614641994238,0.7080768396457037,0.01621023379266262,0.002047406257285426,-0.000682578538544476,0.01915361499413848,0.0017958249663934112,-9.93354320526123,-0.014787588268518448,-0.05028168112039566,0.07610901072621346,199
45,14940000.0,1722.0,1720.0,1721.0,1723.0,0.05368384778499603,-0.002352281380444765,-0.5619631934165955,0.7061161398887634,0.002477304544299841,0.004836477804929018,0.708075225353241,0.0188235305249691,0.002758441958576441,0.0006544447969645262,0.04429273307323456,1.7351929670894606e-07,-9.941923141479492,0.1070779487490654,-0.09493586234748363,0.11964720487594604,200
46,14950000.0,1721.9,1720.2,1721.0,1723.1,0.05274361357092858,-0.002243610704317689,-0.5635296273231506,0.7061230476413455,0.002515127050823399,0.004899917918789599,0.708067753485271,0.01802764553576708,0.0018102084092485407,-0.0007311818771995604,0.03531447425484657,-0.008978082714456548,-9.93653678894043,0.17083485797047615,-0.035927518736571074,0.0612873574718833,201
47,14960000.0,1721.8,1720.4,1721.0,1723.2,0.051803379356861114,-0.002134940028190613,-0.5650960612297058,0.7061299553939274,0.002552949557346957,0.004963358032650181,0.7080602816173008,0.01627009827643633,0.0028920950135216117,-0.001584526035003364,0.023343469016253948,-0.004788229358382523,-9.964070320129395,-0.04159932831923166,0.04419958405196667,-0.08099532996614774,202
48,14970000.0,1721.7,1720.6,1721.0,1723.3,0.05082784855255374,-0.0021239439525675996,-0.5667057677551552,0.7061368631465095,0.002590772063870515,0.005026798146510763,0.7080528097493308,0.016868130769580603,0.003998979751486331,-0.0017936734366230667,0.02394202072173357,-0.016160687897354364,-9.97783613204956,-0.09966227598488331,0.09485289454460144,-0.09832254238426685,203
49,14980000.0,1721.6,1720.8,1721.0,1723.4,0.049711131387286715,-0.002503646278960837,-0.5684885647561815,0.7061437708990914,0.0026285945703940733,0.005090238260371345,0.7080453378813607,0.011903202161192894,0.003450444433838129,-0.00031925272196531296,0.02394201699644327,-0.0101751844631508,-9.962273597717285,-0.14803599752485752,0.04451637715101242,0.022452013567090034,204
50,14990000.0,1721.5,1721.0,1721.0,1723.5,0.04859441422201969,-0.002883348605354075,-0.5702713617572078,0.7061506786516735,0.0026664170769176315,0.005153678374231926,0.7080378660133907,0.010863818228244781,0.0038735660103460154,-0.00340937675597767,0.06284779496490955,-0.006583880342077464,-9.97663927078247,-0.24593500792980194,-0.00984602523749345,-0.009170707315206528,205
51,15000000.0,1721.4,1721.2,1721.0,1723.6,0.047477697056752664,-0.003263050931747313,-0.5720541587582341,0.7061570733785629,0.0026930359890684485,0.00521551965114971,0.7080309391021729,0.01063401997089386,0.004336799029260874,-0.004282989539206028,0.02513912133872509,-0.023941844701766968,-9.953893661499023,-0.17480510473251343,-0.001625920063816011,-0.1569308191537857,206
52,15010000.0,1721.3,1721.4,1721.0,1723.7,0.04636097989148564,-0.003642753258140551,-0.5738369557592604,0.7061626985669136,0.0027028495096601546,0.005274962672653298,0.7080248296260834,0.009766473590085903,0.0057696756751587,-0.0020572671201080084,0.031124623492360115,-0.016160690691322088,-9.954493522644043,-0.05817385266224544,0.05066030994445707,-0.00874692015349865,207
53,15020000.0,1721.2,1721.6,1721.0,1723.8,0.04524426272621861,-0.004022455584533789,-0.5756197527602867,0.7061683237552643,0.0027126630302518606,0.005334405694156885,0.7080187201499939,0.0078070019371807575,0.006051479838788509,-0.0007471605786122382,0.035314478911459446,-0.020949093624949455,-9.979632377624512,-0.09781475365161896,0.06358820075790088,0.10380103563268979,208
54,15030000.0,1721.1,1721.8,1721.0,1723.9,0.04412754556095159,-0.004402157910927027,-0.577402549761313,0.706173948943615,0.0027224765508435667,0.005393848715660472,0.7080126106739044,0.007971374550834298,0.0027806507035469017,-0.001003341661999002,0.0347159244120121,-0.011372284963726997,-9.973647117614746,-0.09418067522346973,-0.062094733119010925,0.09521259181201458,209
55,15040000.0,1721.0,1722.0,1721.0,1724.0,0.04301082839568456,-0.004781860237320265,-0.5791853467623392,0.7061795741319656,0.0027322900714352727,0.0054532917371640606,0.7080065011978149,0.008287972770631313,0.002192635787650943,0.0001618557726033032,0.03591303154826164,-0.0023940270766615885,-9.971850395202637,-0.03075459413230419,-0.19123834371566772,0.05916019529104233,210
56,15050000.0,1721.1,1722.0,1721.0,1723.8,0.04189411123041754,-0.005161562563713502,-0.5809681437633656,0.7061858062560742,0.0027503353328658985,0.00549519771280197,0.7079998965446765,0.005771126675729951,-0.00034140072724161063,0.00043193107315649587,0.05446809157729149,-0.005985331197734922,-9.967063426971436,-0.08813180983997881,-0.19371124729514122,0.05681782588362694,211
57,15060000.0,1721.2,1722.0,1721.0,1723.6,0.040777394065150505,-0.00554126489010674,-0.5827509407643918,0.7061924430040213,0.0027738684215224707,0.005525412324529428,0.7079929617735056,0.008278212510049343,-0.0025722256395965815,-9.608711116015911e-05,0.0071826050989329815,-0.04189836233854294,-9.953893661499023,-0.05392228486016393,-0.20508413016796112,0.01689288206398487,212
58,15070000.0,1721.3,1722.0,1721.0,1723.4,0.03966067689988348,-0.005920967216499978,-0.5845337377654182,0.7061990797519684,0.002797401510179043,0.0055556269362568855,0.7079860270023346,0.005450196020926038,-0.0017276747773090997,-0.0009700192604213953,0.052373167127370834,-0.012868659570813179,-9.976340293884277,-0.033645805437117815,-0.12373401410877705,-0.05166902206838131,213
59,15080000.0,1721.4,1722.0,1721.0,1723.2,0.038565419465303424,-0.006262904182076454,-0.5862591767311096,0.7062057164999155,0.002820934598835615,0.005585841547984343,0.7079790922311636,0.00445551797747612,-0.002993907080963254,-0.001651048194617033,0.051475346088409424,-0.01197083480656147,-9.96945571899414,-0.1153428815305233,-0.048272864893078804,-0.0781884454190731,214
60,15090000.0,1721.5,1722.0,1721.0,1723.0,0.037502351626753805,-0.006548193106427788,-0.5878985786437988,0.7062123532478626,0.002844467687492187,0.005616056159711801,0.7079721574599926,0.005816750306015213,-0.005824001777606705,-0.002467266283929348,0.04249708354473114,-0.03651140630245209,-9.962873458862305,-0.05879204906523228,-0.14049749076366425,-0.07271146029233932,215
61,15100000.0,1721.6,1722.0,1721.0,1722.8,0.03643928378820419,-0.006833482030779123,-0.589537980556488,0.7062211136023203,0.0028748097053418555,0.005625155948412915,0.707963228225708,0.0057019987143576145,-0.006775316316634417,-0.0009397711837664247,0.02753332257270813,0.008379879407584667,-9.951499938964844,0.03395886346697807,-0.19540301710367203,-0.01775435172021389,216
62,15110000.0,1721.7,1722.0,1721.0,1722.6,0.03537621594965458,-0.007118770955130458,-0.5911773824691773,0.7062330593665441,0.0029153651169811687,0.005602583502574514,0.7079513072967529,0.0031814632238820195,-0.008780140662565827,-0.002076780520534764,0.04548983462154865,-0.02454039826989174,-9.938930988311768,-0.060728663578629494,-0.17198841273784637,0.0170131036429666,217
63,15120000.0,1721.8,1722.0,1721.0,1722.4,0.03431314811110497,-0.007404059879481792,-0.5928167843818665,0.7062450051307678,0.0029559205286204815,0.005580011056736112,0.7079393863677979,0.0018643342991708778,-0.01187226758338511,-0.002216462919022888,0.02992752566933632,-0.0407012514770031,-9.955093383789062,-0.17152098566293716,-0.20655383169651031,0.0031877003493718803,218
64,15130000.0,1721.9,1722.0,1721.0,1722.2,0.033250080272555355,-0.007689348803833127,-0.5944561862945557,0.7062569508949915,0.0029964759402597942,0.00555743861089771,0.7079274654388428,0.0003932886647817213,-0.015250116935931146,-0.003156645718263462,0.06344634667038918,-0.07003023009747267,-9.951800107955933,-0.1701081246137619,-0.284228153526783,-0.03563269949518144,219
65,15140000.0,1722.0,1722.0,1721.0,1722.0,0.032187012434005735,-0.007974637728184462,-0.5960955882072448,0.7062688966592153,0.0030370313518991074,0.0055348661650593085,0.7079155445098877,-0.0008017770014703274,-0.017414091154932976,-0.0032601915299892426,0.06224924325942993,-0.016759242862462997,-9.964670181274414,-0.128909632563591,-0.3130696713924408,-0.08264528959989548,220
66,15150000.0,1722.0,1721.8,1721.1,1721.9,0.031123944595456123,-0.008259926652535797,-0.597734990119934,0.7062780834161319,0.0030941497086762236,0.005482444127735037,0.7079065258686359,-0.0018924300481254857,-0.020352527188758057,-0.0011830976194081209,0.05746084079146385,-0.026934593319488442,-9.958682537078857,-0.09913835674524307,-0.2867210805416107,0.012067794799804688,221
67,15160000.0,1722.0,1721.6,1721.2,1721.8,0.03006087675690651,-0.00854521557688713,-0.5993743920326233,0.7062854308348435,0.003162310028878542,0.00541012236275352,0.707899442085853,-0.0018337093060836196,-0.023649141192436218,-0.0012275011977180839,0.02513912320137024,-0.03232154995203018,-9.939530372619629,-0.07058914937078953,-0.28574052453041077,0.09214024245738983,222
68,15170000.0,1722.0,1721.4,1721.3,1721.7,0.028997808918356897,-0.008830504501238465,-0.6010137939453125,0.7062927782535553,0.0032304703490808606,0.005337800597772002,0.7078923583030701,-0.00011898125861383346,-0.02286972353855769,-0.002029591802662859,0.049679696559906006,0.00897843053098768,-9.962872505187988,0.03291501197963953,-0.1869553178548813,0.0013542757369577885,223
69,15180000.0,1722.0,1721.2,1721.4,1721.6,0.02794527659273666,-0.009010901917581972,-0.6026292624680892,0.7063001256722671,0.003298630669283179,0.005265478832790485,0.7078852745202872,0.00023646658519282937,-0.02318057417869568,-0.002529591554775834,0.0347159244120121,-0.058657772839069366,-9.976640701293945,0.08081786582867305,-0.05937807075679302,-0.04182107063631217,224
70,15190000.0,1722.0,1721.0,1721.5,1721.5,0.026908547536510487,-0.00903396207191374,-0.6042088309059972,0.7063074730909787,0.0033667909894854976,0.005193157067808967,0.7078781907375042,-0.004260669763122375,-0.02476439842333396,-0.0014997756031031408,0.04967969097197056,-0.025438223965466022,-9.964070558547974,-0.07590753585100174,-0.05048873135820031,-0.005459370091557503,225
71,15200000.0,1722.0,1720.8,1721.6,1721.4,0.025871818480284317,-0.009057022226245506,-0.6057883993439053,0.7063129047552744,0.003435032422809551,0.0051143857805679245,0.7078730265299479,-0.0034806067124009132,-0.023515719920396805,-0.0022656533401459455,0.05267243832349777,-0.007182430941611528,-9.980230331420898,-0.19861260801553726,-0.04193999897688627,0.019343321677297354,226
72,15210000.0,1722.0,1720.6,1721.7,1721.3,0.024835089424058147,-0.009080082380577274,-0.6073679677818132,0.7063154627879461,0.0035033955258162073,0.005025940209937592,0.7078707416852316,-0.003446415338354806,-0.024026107974350452,-0.001426971168257296,0.03172317240387201,-0.02274474361911416,-9.964070320129395,-0.07182983867824078,0.011553208343684673,0.014220842625945807,227
73,15220000.0,1722.0,1720.4,1721.8,1721.2,0.023798360367831978,-0.00910314253490904,-0.6089475362197213,0.7063180208206177,0.003571758628822863,0.0049374946393072605,0.7078684568405151,-0.0034738712129183114,-0.024999769404530525,-0.0003831619251286611,0.04309563525021076,-0.020350544713437557,-9.946712017059326,0.017270074225962162,-0.02279542200267315,0.06889114901423454,228
74,15230000.0,1722.0,1720.2,1721.9,1721.1,0.022761631311605805,-0.009126202689240808,-0.6105271046576293,0.7063205788532892,0.003640121731829519,0.004849049068676929,0.7078661719957987,-0.003615058696595952,-0.026193655095994473,3.474263212410733e-05,0.06853402592241764,-0.0077809825306758285,-9.933243989944458,0.008247036021202803,-0.09317801520228386,0.08427465334534645,229
75,15240000.0,1722.0,1720.0,1722.0,1721.0,0.021724902255379635,-0.009149262843572575,-0.6121066730955372,0.7063231368859609,0.003708484834836175,0.0047606034980465966,0.7078638871510824,-0.003853103145956993,-0.02484608069062233,0.00011744600487872958,0.08379707485437393,-0.02513894811272621,-9.927558898925781,-0.009134027175605297,-0.0567976722959429,0.0377262425608933,230
76,15250000.0,1721.9,1720.0,1721.9,1720.9,0.020688173199153465,-0.009172322997904343,-0.6136862415334453,0.7063260101355039,0.0037689645452281604,0.0046727475710213184,0.7078612744808197,-0.00475834325576822,-0.024107784032821655,-0.0008368288690689951,0.018555063754320145,-0.012569387210533023,-9.947909832000732,-0.05454882769845426,0.08010213810484856,-0.012745497515425086,231
77,15260000.0,1721.8,1720.0,1721.8,1720.8,0.019651444142927292,-0.009195383152236109,-0.6152658099713533,0.7063290935296279,0.0038241886605436984,0.004585284739732742,0.7078584432601929,-0.004954261239618063,-0.021896779537200928,-0.0022368317004293203,0.035913027822971344,-0.03052590391598642,-9.926960945129395,-0.04944528142611186,0.14005191127459207,-0.08985205243031184,232
78,15270000.0,1721.7,1720.0,1721.7,1720.7,0.018634328171610832,-0.009170025950297714,-0.6168036162853241,0.7063321769237518,0.0038794127758592367,0.004497821908444166,0.707855612039566,-0.004027359730874498,-0.021848158289988834,-0.0009942679607775062,0.039205058477818966,-0.04818313755095005,-9.935340404510498,0.007367448881268501,0.12108037248253822,-0.053271026350557804,233
79,15280000.0,1721.6,1720.0,1721.6,1720.6,0.017695664539933206,-0.008950999323278665,-0.6181743741035461,0.7063352603178757,0.003934636891174775,0.00441035907715559,0.7078527808189392,-0.004403201048262417,-0.02179229026660323,-0.0005328684928826988,0.031124621629714966,-0.02513894811272621,-9.903615951538086,0.026550793321803212,0.038567251060158014,0.051769751124083996,234
80,15290000.0,1721.5,1720.0,1721.5,1720.5,0.016757000908255576,-0.008731972696259617,-0.6195451319217682,0.7063383437119998,0.003989861006490313,0.004322896245867014,0.7078499495983124,-0.005484142049681395,-0.02060341858305037,-0.000778713496401906,0.032620997400954366,-0.05386937316507101,-9.924265384674072,-0.04393788310699165,0.03261568630114198,0.043790517607703805,235
81,15300000.0,1721.4,1720.0,1721.4,1720.4,0.01581833727657795,-0.00851294606924057,-0.6209158897399902,0.7063422103722891,0.0040424166557689505,0.004237242760912825,0.7078463137149811,-0.005970508384052664,-0.020063215866684914,-0.0022964024683460593,0.018555065151304007,-0.031124452129006386,-9.929353713989258,-0.10407999902963638,0.08112092316150665,-0.07874934910796583,236
82,15310000.0,1721.3,1720.0,1721.3,1720.3,0.014879673644900322,-0.008293919442221522,-0.6222866475582123,0.7063472519318262,0.004090969605992238,0.0041543032954602195,0.7078414708375931,-0.003434101556194946,-0.02090081013739109,-0.0022173701436258852,0.03292027674615383,-0.0011969273909926414,-9.94072675704956,0.01749393716454506,0.03222016803920269,-0.10165469162166119,237
83,15320000.0,1721.2,1720.0,1721.2,1720.2,0.013941010013222694,-0.008074892815202475,-0.6236574053764343,0.7063522934913635,0.004139522556215525,0.004071363830007613,0.7078366279602051,-0.00441515794955194,-0.0202942518517375,-0.0013801637687720358,0.044292740523815155,-0.016759242862462997,-9.940128326416016,0.09541214443743229,-0.02307944744825363,0.03625737316906452,238
84,15330000.0,1721.1,1720.0,1721.1,1720.1,0.013002346381545068,-0.007855866188183427,-0.6250281631946564,0.7063573350509008,0.004188075506438811,0.003988424364555006,0.7078317850828171,-0.005649921135045588,-0.01920547755435109,-0.0023649455688428134,0.05865794979035854,-0.014065762516111135,-9.953296661376953,-0.02263362519443035,0.03585931845009327,0.04500955529510975,239
85,15340000.0,1721.0,1720.0,1721.0,1720.0,0.012063682749867438,-0.007636839561164379,-0.6263989210128784,0.706362376610438,0.004236628456662099,0.0039054848991023996,0.7078269422054291,-0.004409908317029476,-0.01656396873295307,-0.0017955242656171322,0.03351882845163345,-0.016759242862462997,-9.922769546508789,-0.012377278879284859,0.16010137647390366,-0.02963743545114994,240
86,15350000.0,1720.7,1719.8,1720.8,1719.8,0.011125019118189812,-0.007417812934145332,-0.6277696788311005,0.7063675001263618,0.0042734070448204875,0.003829838096862659,0.7078220322728157,-0.007124151336029172,-0.016011823279162247,-0.001310747970516483,0.058657942339777946,-0.03172300197184086,-9.898229598999023,-0.02072836272418499,0.19542986899614334,0.006114223971962929,241
87,15360000.0,1720.4,1719.6,1720.6,1719.6,0.010186355486512184,-0.007198786307126283,-0.6291404366493225,0.7063726782798767,0.004302336058268945,0.0037590530700981617,0.7078170776367188,-0.007453993312083185,-0.015526618110015988,-0.0007113026513252407,0.05985504202544689,-0.02274474105797708,-9.928755760192871,-0.09216822683811188,0.13707596063613892,0.08157195709645748,242
88,15370000.0,1720.1,1719.4,1720.4,1719.4,0.009307568040676416,-0.00697352304123342,-0.6304690563678741,0.7063778564333916,0.004331265071717401,0.0036882680433336645,0.7078121230006218,-0.006592845602426678,-0.01590437244158238,-0.000362321748980321,0.061052147299051285,-0.034117202274501324,-9.902419090270996,-0.03099082317203284,0.04373350087553263,0.07707729935646057,243
89,15380000.0,1719.8,1719.2,1720.2,1719.2,0.008668285338208079,-0.006723313219845295,-0.6316291236877442,0.7063830345869064,0.004360194085165858,0.0036174830165691674,0.7078071683645248,-0.006915252655744553,-0.0156941469758749,-0.0008829188300296664,0.0287304250523448,-0.04309546388685703,-9.895236492156982,0.012833538305130787,-0.030893160961568356,-0.02756960317492485,244
90,15390000.0,1719.5,1719.0,1720.0,1719.0,0.008029002635739744,-0.006473103398457169,-0.6327891910076141,0.7063882127404213,0.0043891230986143155,0.00354669798980467,0.7078022137284279,-0.004146184617032608,-0.01197911131506165,-0.00259729364188388,0.04429273679852486,-0.04189835861325264,-9.906609058380127,0.07534289157774765,0.09804736077785492,-0.129590954631567,245
91,15400000.0,1719.2,1718.8,1719.8,1718.8,0.0073897199332714075,-0.006222893577069044,-0.6339492583274842,0.7063938883634714,0.004398746236872215,0.0034959214166379892,0.7077967386979324,-0.005413181614130735,-0.008426557295024395,-0.0024100416339933872,0.05027824267745018,-0.04548966884613037,-9.88087272644043,0.09558378532528877,0.2803794890642166,-0.11659461259841919,246
92,15410000.0,1718.9,1718.6,1719.6,1718.6,0.006750437230803073,-0.005972683755680918,-0.6351093256473541,0.7063996883539053,0.004403542906332474,0.003450146956870762,0.707791133568837,-0.0058661524672061205,-0.008276598062366247,-0.0015889617498032749,0.02633621753193438,-0.05416863923892379,-9.915886163711548,-0.008125513792037964,0.24412160366773605,-0.003604954108595841,247
93,15420000.0,1718.6,1718.4,1719.4,1718.4,0.006111154528334736,-0.005722473934292793,-0.6362693929672241,0.7064054883443392,0.0044083395757927345,0.003404372497103535,0.7077855284397419,-0.005118673550896347,-0.00861040549352765,-0.001540762314107269,0.006584054324775934,-0.02633604872971773,-9.8892502784729,-0.02302912576124072,0.04093894734978676,0.0454679224640131,248
94,15430000.0,1718.3,1718.2,1719.2,1718.2,0.005471871825866401,-0.0054722641129046675,-0.6374294602870941,0.7064112883347732,0.004413136245252995,0.003358598037336308,0.7077799233106467,-0.0037314100773073733,-0.006085318746045232,-0.002296312159160152,0.023942017927765846,-0.01735779084265232,-9.909602165222168,0.05635084258392454,0.0278557650744915,0.00303365662693977,249
95,15440000.0,1718.0,1718.0,1719.0,1718.0,0.004832589123398065,-0.005222054291516542,-0.6385895276069641,0.706417088325207,0.004417932914713254,0.0033128235775690814,0.7077743181815515,-0.004347805865108967,-0.0038168742321431637,-0.00022665323922410607,0.014963761903345585,-0.03172300569713116,-9.877280712127686,0.06145644560456276,0.19910161197185516,0.03977871313691139,250
96,15450000.0,1717.7,1717.8,1718.6,1717.7,0.004193306420929729,-0.004971844470128417,-0.6397495949268341,0.7064252404066232,0.004409054455418999,0.0032808091401910554,0.707766381593851,-0.004332739782209198,-0.0028984335949644446,0.00022283150853278738,0.014365211827680469,-0.0341172032058239,-9.86530876159668,-0.008799482136964798,0.2195482850074768,0.10954693704843521,251
97,15460000.0,1717.4,1717.6,1718.2,1717.4,0.0035540237184613936,-0.004721634648740291,-0.6409096622467041,0.7064349605486944,0.004391059243621735,0.0032579680510724965,0.7077568907004136,-0.005429830402135849,-0.00046744459541514516,-0.0008430264424532652,0.0023942021653056145,-0.03950415551662445,-9.854535102844238,-0.05422649905085564,0.1861918419599533,0.048288042191416025,252
98,15470000.0,1717.1,1717.4,1717.8,1717.1,0.0029168456396156993,-0.00445511444316556,-0.6419379666999534,0.7064446806907654,0.00437306403182447,0.003235126961953938,0.7077473998069763,-0.006417369547610481,-0.00031072308775037527,-0.001178255130071193,-0.0005985517054796219,-0.03142372705042362,-9.854535102844238,-0.08671729266643524,0.1476835049688816,-0.042235185857862234,253
99,15480000.0,1716.8,1717.2,1717.4,1716.8,0.0022880860552605656,-0.004123352700844407,-0.6424392196867201,0.7064544008328364,0.004355068820027204,0.0032122858728353795,0.707737908913539,-0.005791723728179932,-0.00044181273551657796,-0.002986546140164137,0.02513911761343479,-0.060453422367572784,-9.852740287780762,-0.048109531635418534,0.056181049440056086,-0.10270410776138306,254
100,15490000.0,1716.5,1717.0,1717.0,1716.5,0.001659326470905432,-0.003791590958523254,-0.6429404726734868,0.7064641209749075,0.00433707360822994,0.0031894447837168207,0.7077284180201017,-0.002829070397031804,0.00037463047192431986,-0.004058253563319643,0.014365210197865963,-0.044292562641203403,-9.837775230407715,0.11588966823183,0.02310640038922429,-0.1369287371635437,255
101,15500000.0,1716.2,1716.8,1716.6,1716.2,0.0010305668865502986,-0.0034598292162021003,-0.6434417256602535,0.7064736783504486,0.004326545206519465,0.0031752228775682547,0.7077190031607946,0.00040992681169882417,0.0010533332824707031,-0.005175334867089987,0.012569558806717396,-0.02454039780423045,-9.83059310913086,0.26473017781972885,0.04881926067173481,-0.12982331588864326,256
102,15510000.0,1715.9,1716.6,1716.2,1715.9,0.00040180730219516484,-0.0031280674738809466,-0.6439429786470201,0.7064829915761948,0.004327217019939174,0.0031739297458746782,0.7077097023526827,0.0011071260960306972,0.0004813658888451755,-0.0013196572739010057,0.03770868480205536,-0.01855489332228899,-9.802460670471191,0.24006319791078568,0.02516347635537386,0.03834196552634239,257
103,15520000.0,1715.6,1716.4,1715.8,1715.6,-0.00022695228215996845,-0.0027963057315597934,-0.6444442316337868,0.7064923048019409,0.004327888833358884,0.0031726366141811013,0.7077004015445709,0.0011324852239340544,-0.00022481508494820446,-0.0005962817231193185,0.03351882845163345,-0.031124450266361237,-9.818620681762695,0.11218544840812683,-0.03156546410173178,0.19239811599254608,258
104,15530000.0,1715.3,1716.2,1715.4,1715.3,-0.0008557118665151022,-0.00246454398923864,-0.6449454846205535,0.7065016180276871,0.004328560646778594,0.0031713434824875244,0.7076911007364591,0.0004925691658475746,0.0010210839900537394,-0.001687432445275287,0.02633622195571661,-0.011372287292033434,-9.804255485534668,-0.016798443160951138,-0.021261282498016957,0.06365678971633315,259
105,15540000.0,1715.0,1716.0,1715.0,1715.0,-0.0014844714508702355,-0.0021327822469174866,-0.6454467376073202,0.7065109312534332,0.004329232460198303,0.003170050350793948,0.7076817999283472,0.002067084424197674,0.0008963659056462348,-0.0016183147672563791,0.01376666221767664,-0.01915344363078475,-9.816826820373535,0.015271220356225967,0.02703699624786774,-0.012178930764396988,260
106,15550000.0,1715.1041666666667,1715.6875,1715.1041666666667,1714.8958333333333,-0.0021132310352253688,-0.001801020504596333,-0.6459479905940868,0.7065159752964973,0.004334394179750234,0.003172031487338245,0.7076767235994339,0.0025956369936466217,-0.0004463340349805852,0.0002837269857991487,0.030526072718203068,-0.03052590135484934,-9.781510829925537,0.047872621566057205,-0.004051402211189263,0.03702833969146013,261
107,15560000.0,1715.2083333333333,1715.375,1715.2083333333333,1714.7916666666667,-0.002741990619580503,-0.0014692587622751794,-0.6464492435808535,0.7065181732177734,0.004342549170056979,0.003176195469374458,0.7076744635899862,0.0019822283647954464,0.0007536557968705893,-7.690658094361424e-05,0.0023942021653056145,-0.033518657088279724,-9.812637329101562,0.030483067268505692,-0.02113447990268469,0.07885953597724438,262
108,15570000.0,1715.3125,1715.0625,1715.3125,1714.6875,-0.0033707502039356362,-0.0011374970199540262,-0.6469504965676202,0.7065203711390495,0.0043507041603637235,0.0031803594514106712,0.7076722035805384,0.00311267061624676,-0.001222504477482289,-0.0007518334799290945,0.03890577983111143,-0.02992735430598259,-9.80964469909668,0.041444905335083604,-0.03644684050232172,0.009371258318424225,263
109,15580000.0,1715.4166666666667,1714.75,1715.4166666666667,1714.5833333333333,-0.004021908789873123,-0.0007310428470373154,-0.6472213530540466,0.7065225690603256,0.004358859150670469,0.003184523433446884,0.7076699435710907,0.0032157720997929573,-0.0007891450659371912,0.0005911749321967363,0.04967968910932541,-0.04070125985890627,-9.768342971801758,0.05268178600817919,-0.07039643824100494,-0.006216518580913544,264
110,15590000.0,1715.5208333333333,1714.4375,1715.5208333333333,1714.4791666666667,-0.00470666587818414,-0.00021255002822726963,-0.6471466147899627,0.7065247669816017,0.004367014140977214,0.003188687415483097,0.707667683561643,0.003504594244683782,1.9261567407132473e-05,0.0015671010672425232,0.020350716076791286,-0.06584038212895393,-9.750986099243164,0.01998921111226082,0.007820192724466324,0.06082070432603359,265
111,15600000.0,1715.625,1714.125,1715.625,1714.375,-0.005391422966495156,0.00030594279058277613,-0.6470718765258789,0.7065301934878031,0.00436894145483772,0.0031999703108643494,0.7076622148354849,0.0019481482449918985,0.0011649236548691988,0.0005929999751970172,0.046686939895153046,-0.009576638229191303,-9.780313491821289,-0.029759840108454227,0.0810236856341362,0.05153009528294206,266
112,15610000.0,1715.7291666666667,1713.8125,1715.7291666666667,1714.2708333333333,-0.006076180054806173,0.0008244356093928217,-0.6469971382617951,0.7065364271402359,0.004369311849586666,0.003213032934581861,0.7076559439301491,0.0027511440760766464,0.0026744291341553135,-0.0011856966302730143,0.051475340500473976,-0.02992735616862774,-9.744400978088379,-0.0446868110448122,0.11442651599645615,-0.07183811953291297,267
113,15620000.0,1715.8333333333333,1713.5,1715.8333333333333,1714.1666666666667,-0.00676093714311719,0.0013429284282028674,-0.6469223999977112,0.7065426607926687,0.004369682244335611,0.0032260955582993724,0.7076496730248133,0.0024386653676629066,0.0042671202681958675,-0.0014081180561333895,0.056862302124500275,-0.023343299515545368,-9.761758804321289,-0.008532460546121001,0.14276763796806335,-0.12148218601942062,268
114,15630000.0,1715.9375,1713.1875,1715.9375,1714.0625,-0.007445694231428206,0.001861421247012913,-0.6468476617336273,0.7065488944451014,0.004370052639084558,0.0032391581820168844,0.7076434021194776,0.003024131990969181,0.0012199874424065151,-0.0010485032689757645,0.05267244577407837,-0.05207371897995472,-9.788694381713867,0.018436968559399247,0.011757485568523407,-0.04224601574242116,269
115,15640000.0,1715.9615384615386,1713.1153846153845,1715.923076923077,1714.0384615384614,-0.008130451319739222,0.002379914065822959,-0.6467729234695434,0.7065551280975342,0.004370423033833504,0.003252220805734396,0.7076371312141418,0.0036119328578934073,0.0011205880236957455,0.0004683076695073396,0.016759414225816727,-0.03471575304865837,-9.798270225524902,0.05301009491086006,-0.17162466049194336,0.09171891957521439,270
116,15650000.0,1715.8653846153845,1713.4038461538462,1715.7307692307693,1714.1346153846155,-0.00881520840805024,0.0028984068846330045,-0.6466981852054596,0.7065585127898625,0.004360438008526606,0.0032856588617765476,0.7076336400849479,0.004049157083500177,0.0037806686368639926,0.00034673580375965685,0.0200514430180192,0.0071827765787020326,-9.797673225402832,0.07874945116539796,0.03529432912667593,0.09550359720985095,271
117,15660000.0,1715.7692307692307,1713.6923076923076,1715.5384615384614,1714.2307692307693,-0.009499965496361257,0.0034168997034430505,-0.6466234469413757,0.7065618974821908,0.004350452983219709,0.0033190969178186996,0.7076301489557538,0.004123224411159754,0.005422946531325579,-0.0005335207097232342,0.06584055721759796,-0.031124453991651535,-9.739614486694336,0.019943350926041603,0.1992952674627304,0.0020168880000710487,272
118,15670000.0,1715.673076923077,1713.9807692307693,1715.3461538461538,1714.326923076923,-0.010184722584672273,0.003935392522253096,-0.6465487086772919,0.7065652821745191,0.004340467957912811,0.0033525349738608512,0.7076266578265599,0.005616853944957256,0.006478951467821995,-0.0005594365550981214,0.02992752008140087,-0.02873025368899107,-9.758169174194336,0.06548150791786611,0.1558320540934801,-0.029060899862088263,273
119,15680000.0,1715.576923076923,1714.2692307692307,1715.1538461538462,1714.423076923077,-0.010849822834134102,0.004413201212882995,-0.6464456582069397,0.7065686668668475,0.004330482932605914,0.0033859730299030033,0.7076231666973659,0.00463941739872098,0.0073633939027786255,0.0006264348048716784,0.053869545459747314,-0.040701255202293396,-9.744400978088379,0.04229340748861432,0.1253272220492363,0.0024060551077127457,274
120,15690000.0,1715.4807692307693,1714.5576923076924,1714.9615384615386,1714.5192307692307,-0.011485437825322152,0.004829983711242675,-0.646300139427185,0.7065720515591758,0.004320497907299016,0.003419411085945155,0.707619675568172,0.002529796756183108,0.007532528679197033,0.0016301166809474428,0.02723404671996832,-0.04908096604049206,-9.770140409469604,-0.08938176883384585,0.09077165089547634,0.08858132176101208,275
121,15700000.0,1715.3846153846155,1714.8461538461538,1714.7692307692307,1714.6153846153845,-0.0121210528165102,0.005246766209602356,-0.6461546206474305,0.7065783242384592,0.004300739887791376,0.003452662999431292,0.7076133688290914,-0.0003273688198532909,0.007540998049080372,0.0017358486074954271,0.02992752566933632,-0.021547649055719376,-9.733627319335938,-0.21971196681261063,0.02188596874475479,0.08200076036155224,276
122,15710000.0,1715.2884615384614,1715.1346153846155,1714.576923076923,1714.7115384615386,-0.01275666780769825,0.005663548707962036,-0.6460091018676758,0.7065889288981756,0.004266322376982619,0.003485635699083408,0.707602838675181,0.0007673302170587704,0.008775961274902025,-0.0005880290021498999,0.04369418229907751,-0.03262082859873772,-9.764452695846558,-0.15994750522077084,0.020146066322922707,-0.05810746364295481,277
123,15720000.0,1715.1923076923076,1715.423076923077,1714.3846153846155,1714.8076923076924,-0.0133922827988863,0.006080331206321716,-0.6458635830879211,0.7065995335578918,0.004231904866173863,0.0035186083987355232,0.7075923085212708,-3.882817691192031e-05,0.010021700523793697,-0.002586725866422057,0.037110134959220886,-0.05985487625002861,-9.775527000427246,-0.04370206780731678,0.08641161769628525,-0.17956363409757614,278
124,15730000.0,1715.0961538461538,1715.7115384615386,1714.1923076923076,1714.9038461538462,-0.014027897790074347,0.006497113704681397,-0.6457180643081665,0.7066101382176081,0.004197487355365108,0.0035515810983876386,0.7075817783673605,-0.0006984616581272954,0.00989213539287448,-0.002596164083418747,0.03950433246791363,-0.05746067501604557,-9.773730754852295,-0.04159125126898289,0.07508936524391174,-0.14549877122044563,279
125,15740000.0,1715.0,1716.0,1714.0,1715.0,-0.014663512781262399,0.006913896203041076,-0.6455725455284118,0.7066207428773245,0.004163069844556351,0.0035845537980397544,0.7075712482134501,-0.00017614217358641326,0.010019887238740921,-0.0029411024879664183,0.04848259314894676,-0.04010271467268467,-9.77193546295166,-0.024487909977324307,0.02410307340323925,-0.058141681365668774,280
126,15750000.0,1715.0,1716.0,1714.0,1715.0,-0.015299127772450447,0.007330678701400757,-0.6454270267486573,0.7066285386681557,0.004131703695748001,0.003611514635849744,0.707563504576683,-0.000987758583505638,0.010512153307596842,-0.000728895548187817,0.030526073416695,-0.03232155879959464,-9.768343448638916,-0.01829603046644479,0.024483583867549896,0.051983521319925785,281
127,15760000.0,1715.0,1716.0,1714.0,1715.0,-0.015934742763638494,0.007747461199760437,-0.6452815079689026,0.7066344618797302,0.004102371788273255,0.0036344675657649836,0.7075576186180115,-0.0008530266350135207,0.0095890574157238,-0.0010573642794042826,0.02932897163555026,-0.016759243328124285,-9.758169174194336,-0.02711157500743866,-0.0034621451050043106,0.10714208707213402,282
128,15770000.0,1715.0,1716.0,1714.0,1715.0,-0.016570357754826546,0.008164243698120117,-0.6451359891891479,0.7066403850913048,0.0040730398807985084,0.0036574204956802228,0.7075517326593399,-0.0005298797477735206,0.006730717063571015,-0.001423119198686133,0.03022679570131004,-0.018255619099363685,-9.778817892074585,0.0011686747893691063,-0.12508204951882362,0.029842553660273552,283
129,15780000.0,1715.0,1716.0,1714.0,1715.0,-0.017170283645391464,0.008547214232385159,-0.64499591588974,0.7066463083028793,0.004043707973323762,0.0036803734255954623,0.7075458467006683,-0.0004912149161100388,0.006443851161748171,0.0005314932204782963,0.017956513911485672,-0.026336049661040306,-9.782708168029785,0.022037800401449203,-0.18030766397714615,0.02763569913804531,284
130,15790000.0,1715.0,1716.0,1714.0,1715.0,-0.017716675885021686,0.008879466820508242,-0.6448640108108521,0.7066522315144539,0.004014376065849016,0.003703326355510702,0.7075399607419968,-0.0008909170283004642,0.005570428911596537,0.0002944453347784778,0.026934770867228508,-0.04608822055160999,-9.752182960510254,-0.0019706375896930695,-0.10866689682006836,0.07199106737971306,285
131,15800000.0,1715.0,1716.0,1714.0,1715.0,-0.018263068124651907,0.009211719408631325,-0.6447321057319642,0.706659068663915,0.003980137679415445,0.0037269601986433067,0.707533210515976,-0.0015287866117432714,0.006190035492181778,-0.00022589968284592032,0.031124621629714966,-0.03471575304865837,-9.776723861694336,-0.02924144919961691,-0.03477263497188687,0.01724671758711338,286
132,15810000.0,1715.0,1716.0,1714.0,1715.0,-0.018809460364282132,0.009543971996754408,-0.6446002006530762,0.7066661342978477,0.003944672673242167,0.0037507642700802535,0.7075262442231178,0.0013095728936605155,0.009225010871887207,-0.0008216450514737517,-0.0005985505413264036,-0.02513894811272621,-9.767745971679688,0.08014747127890587,0.13239210448227823,-0.06423780228942633,287
133,15820000.0,1715.0,1716.0,1714.0,1715.0,-0.019355852603912354,0.009876224584877491,-0.6444682955741883,0.7066731999317805,0.0039092076670688885,0.0037745683415172002,0.7075192779302597,-0.0012327213771641254,0.008881596848368645,-0.0019098573829978704,0.033518826588988304,-0.033518653362989426,-9.765949726104736,0.017715876301129654,0.13262679676214853,-0.08487686514854431,288
134,15830000.0,1715.0,1716.0,1714.0,1715.0,-0.019902244843542576,0.010208477173000574,-0.6443363904953003,0.7066802655657133,0.0038737426608956107,0.0037983724129541465,0.7075123116374016,-0.0017106766075206299,0.0074853072098145885,-0.0021683325758203864,0.029328973963856697,-0.041299810633063316,-9.769540786743164,-0.07866731286048889,0.006209362298250198,-0.07520967721939087,289
135,15840000.0,1715.0,1715.923076923077,1714.076923076923,1715.0,-0.020448637083172797,0.010540729761123658,-0.6442044854164124,0.706687331199646,0.003838277654722333,0.0038221764843910933,0.7075053453445435,-0.0019329739443492144,0.006847545155324042,-0.001270729975658469,0.031124621629714966,-0.03710996359586716,-9.776723861694336,-0.09368588402867317,-0.10657702013850212,-0.004357542842626572,290
136,15850000.0,1715.0,1715.7307692307693,1714.2692307692307,1715.0,-0.02099502932280302,0.01087298234924674,-0.6440725803375245,0.7066918441227504,0.003796917827068163,0.003822456962162895,0.7075010346514838,-0.004520315749687143,0.006157606549095362,-0.0006444692044169641,0.0574608463793993,-0.03950415877625346,-9.79408049583435,-0.11985842511057854,-0.09877011924982071,0.07115494459867477,291
137,15860000.0,1715.0,1715.5384615384614,1714.4615384615386,1715.0,-0.021541421562433244,0.011205234937369824,-0.6439406752586365,0.7066963570458549,0.0037555579994139926,0.0038227374399346964,0.7074967239584241,-0.006008464377373457,0.005227808840572834,0.002016532002016902,0.058657947927713394,-0.04309546574950218,-9.777921676635742,-0.16937974095344543,-0.07690267637372017,0.12625457346439362,292
138,15870000.0,1715.0,1715.3461538461538,1714.6538461538462,1715.0,-0.022087813802063466,0.011537487525492907,-0.6438087701797486,0.7067008699689593,0.0037141981717598227,0.003823017917706498,0.7074924132653645,-0.007539376694088181,0.005730888340622187,0.001373558344009022,0.05566519312560558,-0.048482414335012436,-9.77253246307373,-0.18712297454476357,-0.05534227192401886,0.15234625712037086,293
139,15880000.0,1715.0,1715.1538461538462,1714.8461538461538,1715.0,-0.02255163162946701,0.011874106898903846,-0.6436936450004578,0.7067053828920636,0.0036728383441056523,0.0038232983954782996,0.7074881025723049,-0.004553564824163914,0.00613055657595396,-0.0006953969714231789,0.05267243832349777,-0.08020558953285217,-9.773130416870117,2.8481086095183406e-05,0.017503025631109878,-0.032228827476501465,294
140,15890000.0,1715.0,1714.9615384615386,1715.0384615384614,1715.0,-0.02289158783853054,0.012217276450246572,-0.6436036896705627,0.7067098958151681,0.0036314785164514823,0.0038235788732501014,0.7074837918792453,-0.0028132426862915354,0.004822272264088194,-0.0012228510749991983,0.04429273959249258,-0.036511408630758524,-9.785103559494019,0.1649593636393547,-0.00019538961350917816,-0.12979748845100403,295
141,15900000.0,1715.0,1714.7692307692307,1715.2307692307693,1715.0,-0.02323154404759407,0.012560446001589298,-0.6435137343406677,0.7067127227783203,0.0035979963034730067,0.0038224993569945746,0.7074811458587646,-0.001723828841932118,0.0027124856133013964,-0.0010965722613036633,0.035913027822971344,-0.0622490756213665,-9.776723861694336,0.2310348004102707,-0.12338828295469284,-0.0941920280456543,296
142,15910000.0,1715.0,1714.576923076923,1715.423076923077,1715.0,-0.0235715002566576,0.012903615552932023,-0.6434237790107727,0.7067130208015442,0.003576330512508073,0.0038193798496980558,0.7074809968471527,-0.0025018562058297298,0.0027945475497593484,0.0001720087990785637,0.038307229056954384,-0.05985487438738346,-9.766547203063965,0.08173670549876988,-0.10357549879699945,0.025483928620815277,297
143,15920000.0,1715.0,1714.3846153846155,1715.6153846153845,1715.0,-0.02391145646572113,0.013246785104274749,-0.6433338236808777,0.7067133188247681,0.0035546647215431385,0.003816260342401537,0.7074808478355408,-0.0025791076477617025,0.0021821935661137104,0.0007798383012413979,0.031124621629714966,-0.0275331512093544,-9.775527954101562,-0.013554012402892113,-0.06899497285485268,0.09603195264935493,298
144,15930000.0,1715.0,1714.1923076923076,1715.8076923076924,1715.0,-0.02425141267478466,0.013589954655617475,-0.6432438683509827,0.7067136168479919,0.0035329989305782046,0.003813140835105018,0.7074806988239288,-0.0019006588457462688,0.0012753361564440031,0.002846200174341599,0.06165069714188576,-0.051475170999765396,-9.77851915359497,0.0031781792640686035,-0.060995329171419144,0.12432973459362984,299
145,15940000.0,1715.0,1714.0,1716.0,1715.0,-0.02459136888384819,0.0139331242069602,-0.6431539130210876,0.7067139148712158,0.0035113331396132708,0.0038100213278084993,0.7074805498123169,-0.003345261560752988,0.0014888150617480278,0.003345861565321684,0.02992752380669117,-0.05746067315340042,-9.803060531616211,-0.00907119084149599,-0.039298464776948094,0.13030489161610603,300
146,15950000.0,1714.9,1714.1,1715.8,1715.1,-0.02493132509291172,0.014276293758302926,-0.6430639576911926,0.7067147974784558,0.003483693769129996,0.00382316188636021,0.7074797245172354,-0.0009149722221385064,0.005337298382073641,-0.0001282613666262482,0.04309563338756561,-0.07003023475408554,-9.779715538024902,0.029799852520227432,0.12786370026879013,-0.04591166600584984,301
147,15960000.0,1714.8,1714.2,1715.6,1715.2,-0.02527128130197525,0.014619463309645652,-0.6429740023612976,0.7067156800856957,0.0034560543986467216,0.00383630244491192,0.7074788992221539,-9.837708785198629e-05,0.005493129603564739,-0.0011107700411230326,0.05746084451675415,-0.05506647378206253,-9.75637435913086,0.10584332793951035,0.21145781874656677,-0.1915421485900879,302
148,15970000.0,1714.7,1714.3,1715.4,1715.3,-0.02561123751103878,0.014962632860988378,-0.6428840470314026,0.7067165626929357,0.003428415028163447,0.0038494430034636306,0.7074780739270724,-0.0027363740130870915,0.006714372119555871,0.001999045256525278,0.036212305072695024,-0.07272371277213097,-9.780913829803467,-0.0065713077783584595,0.11696451529860497,-0.02586524188518524,303
149,15980000.0,1714.6,1714.4,1715.2,1715.4,-0.026040190607309343,0.01523604042828083,-0.6427857565879822,0.7067174453001756,0.003400775657680172,0.0038625835620153407,0.7074772486319909,-0.003030722727999091,0.005161527544260025,0.0021332334727048874,0.0071826050989329815,-0.04788386449217796,-9.770736694335938,-0.12283545732498169,0.02266792580485344,0.13645000010728836,304
150,15990000.0,1714.5,1714.5,1715.0,1715.5,-0.02660263903439045,0.015404805019497871,-0.6426749634742737,0.7067183279074155,0.0033731362871968974,0.0038757241205670512,0.7074764233369094,-0.0011150236241519451,0.003520214115269482,0.002500417293049395,0.023343466222286224,-0.021547647193074226,-9.824009895324707,-0.010666105896234512,-0.09255379438400269,0.09270703792572021,305
151,16000000.0,1714.4,1714.6,1714.8,1715.6,-0.027165087461471556,0.015573569610714912,-0.6425641703605652,0.7067168354988098,0.00334596773609519,0.0038960385494507276,0.7074779272079468,0.00017903043772093952,0.0038499858928844333,0.002628639223985374,0.028730422258377075,-0.020350543782114983,-9.76834487915039,0.16194754838943481,-0.13983295857906342,0.0356343649327755,306
152,16010000.0,1714.3,1714.7,1714.6,1715.7,-0.027727535888552667,0.015742334201931954,-0.6424533772468567,0.7067147493362427,0.0033189168898388743,0.003918146445917396,0.7074800133705139,-0.000501650312799029,0.005672902858350426,0.0027280058129690588,0.03830723091959953,-0.04249691218137741,-9.777920722961426,0.06206553755328058,0.026258056983351707,0.020379816298373044,307
153,16020000.0,1714.2,1714.8,1714.4,1715.8,-0.028289984315633773,0.015911098793148993,-0.6423425841331482,0.7067126631736755,0.0032918660435825586,0.003940254342384064,0.707482099533081,-0.0010415517026558518,0.0060889869928359985,0.002133125439286232,0.02753332257270813,-0.0275331512093544,-9.78989028930664,-0.05113666504621506,0.13889944553375244,-0.012569274753332138,308
154,16030000.0,1714.1,1714.9,1714.2,1715.9,-0.028852432742714883,0.016079863384366035,-0.6422317910194397,0.7067105770111084,0.003264815197326243,0.003962362238850731,0.7074841856956482,-0.0005272905351982141,0.006278892979025841,0.0015298922856648764,0.041898537427186966,-0.01077373611042276,-9.780314445495605,-0.03423881810158491,0.09064419567584991,-0.04890052927657962,309
