,timestamp,u0,u1,u2,u3,u4,u5,u6,u7,vx,vy,vz,q0,q1,q2,q3,ang_vel_x,ang_vel_y,ang_vel_z,accelerometer_m_s2[0],accelerometer_m_s2[1],accelerometer_m_s2[2],ang_acc_x,ang_acc_y,ang_acc_z,V_air_body_x,V_air_body_y,V_air_body_z,AoA
0,14340000.0,0.535,0.535,0.537,0.536,0.0,0.0,0.0,0.0,-0.012625947147607803,0.012236128896474838,-0.08687341421842576,0.7069247961044312,0.004493015740687649,0.0018892277730628848,0.7072715560595194,0.064486064016819,-0.0271344855427742,0.003862390760332346,0.01256955973803997,-0.04489110875874758,-10.204686164855957,0.4820527633031209,0.08848444124062856,0.1866319552063942,0.011921942892220334,0.011835221079548043,-0.08702828634530403,-1.4346544353413573
1,14350000.0,0.5360999999999999,0.5349,0.5374000000000001,0.5367999999999999,0.0,0.0,0.0,0.0,-0.013496370632201434,0.012879050485789776,-0.09096649423241615,0.7069056481122971,0.004815920168766752,0.0020068613084731624,0.7072884812951088,0.06635670363903046,-0.028240542858839035,0.0028357501917829113,-0.030526074580848217,-0.10654180869460106,-10.18673038482666,0.37935470789670944,0.08649433450773358,-0.04412088729441166,0.01252438826966047,0.01261091156885183,-0.09114290850082883,-1.4342367442121908
2,14360000.0,0.5372,0.5347999999999999,0.5378,0.5375999999999999,0.0,0.0,0.0,0.0,-0.014366794116795062,0.013521972075104714,-0.09505957424640656,0.706883925658006,0.005138526491534252,0.002150472396841416,0.7073075312834519,0.0715731531381607,-0.02818593941628933,0.005358484573662281,-0.041898537427186966,-0.055066466331481934,-10.146629333496094,0.3234912057717641,0.03728986158967018,-0.022950644294420876,0.013128157633175243,0.013377879484432729,-0.09525888453871469,-1.4338434613633104
3,14370000.0,0.5383,0.5347000000000001,0.5382,0.5384000000000001,0.0,0.0,0.0,0.0,-0.015237217601388693,0.01416489366441965,-0.09915265426039696,0.7068583415104792,0.005460685656334345,0.002333049814646634,0.7073297684009259,0.07788467034697533,-0.02254247386008501,0.005554454245915015,0.031124623492360115,0.06344653479754925,-10.22683334350586,0.47703366726636887,0.1739791538566351,0.08515876531600952,0.013735615760261609,0.014133821845004087,-0.099376226136661,-1.433448234229663
4,14380000.0,0.5394000000000001,0.5346,0.5385999999999999,0.5392,0.0,0.0,0.0,0.0,-0.016107641085982324,0.014807815253734589,-0.10324573427438735,0.7068327573629526,0.005782844821134439,0.0025156272324518515,0.7073520055183997,0.0780162587761879,-0.02454236149787903,0.007180670276284218,0.05746084079146385,-0.02873024344444275,-10.214862823486328,0.42557429273923236,0.23087291046977043,0.06714751323064169,0.014341557520326852,0.014883803851126719,-0.10349493714379032,-1.4331006670682187
5,14390000.0,0.5405,0.5345,0.539,0.54,0.0,0.0,0.0,0.0,-0.017054532207548618,0.015492940172553062,-0.10758105024695397,0.706807173215426,0.006105003985934532,0.002698204650257069,0.7073742426358737,0.07386195659637451,-0.022331195573012035,0.004049113641182582,0.05027823895215988,-0.05327081028372049,-10.214264392852783,0.03509216755628586,0.03713372256606817,-0.017901167273521423,0.014987075568623033,0.015701234418675734,-0.10785838033881846,-1.432728951754858
6,14400000.0,0.5415999999999999,0.5344000000000001,0.5394000000000001,0.5408,0.0,0.0,0.0,0.0,-0.018307293877005578,0.01634687840938568,-0.11288531005382538,0.7067815890678992,0.006427163150734626,0.002880782068062287,0.7073964797533475,0.06679046154022217,-0.013429412618279457,0.004937936086207628,-0.008379707112908363,-0.04908095300197601,-10.240002632141113,-0.44793328642845154,0.30340322107076645,-0.11247041821479797,0.015795191200908623,0.016805286007322173,-0.11319702040882478,-1.4321543529331002
7,14410000.0,0.5427000000000001,0.5343,0.5398,0.5415999999999999,0.0,0.0,0.0,0.0,-0.019560055546462535,0.017200816646218302,-0.11818956986069679,0.706756018102169,0.0067083166795782745,0.0030447602330241352,0.7074190527200699,0.057758017132679626,-0.012081573872516552,0.007611880777403712,0.014963760622777045,-0.04728531092405319,-10.287886619567871,-0.7518293857574463,0.4783853739500046,0.08407757431268692,0.016605125987151192,0.017911592035392807,-0.11853557641819663,-1.4316164430333609
8,14420000.0,0.5438,0.5342,0.5402,0.5424000000000001,0.0,0.0,0.0,0.0,-0.020812817215919495,0.01805475488305092,-0.12349382966756821,0.7067304998636246,0.00682544766459614,0.0031343413866125047,0.707442969083786,0.04785967618227005,-0.013141556642949581,0.009927794337272644,0.026336219161748886,-0.050278063863515854,-10.257957458496094,-0.9445458650588989,0.32498155534267426,0.21335034569104513,0.017429207221454857,0.019052818756106583,-0.12386721271161967,-1.431005275635949
9,14430000.0,0.5449,0.5340999999999999,0.5405999999999999,0.5432,0.0,0.0,0.0,0.0,-0.022065578885376455,0.018908693119883538,-0.12879808947443963,0.7067049816250801,0.006942578649614006,0.003223922540200874,0.7074668854475021,0.035932792971531555,-0.007296217217420538,0.009029724635183811,0.0023942021653056145,-0.030525891110301018,-10.354323863983154,-1.0759023427963257,0.14422858133912086,0.1474988143891096,0.018253037672164796,0.020190811908485658,-0.12919959041250328,-1.430447340583199
10,14440000.0,0.546,0.534,0.541,0.544,0.0,0.0,0.0,0.0,-0.023318340554833412,0.019762631356716156,-0.13410234928131104,0.7066794633865356,0.007059709634631872,0.0033135036937892437,0.7074908018112183,0.025963222607970238,-0.0015193604631349444,0.005833322182297707,0.056263744831085205,-0.03591284528374672,-10.301054000854492,-1.0952465534210205,0.38013853629430133,-0.09253905713558197,0.01907661699872572,0.02132557090718379,-0.1345327080866762,-1.4299363069101205
11,14450000.0,0.546,0.5347000000000001,0.5413,0.5445,0.0,0.0,0.0,0.0,-0.024571102224290372,0.020616569593548774,-0.13940660908818245,0.7066539451479912,0.007176840619649738,0.003403084847377613,0.7075147181749344,0.01611226905758182,0.0032427071322066086,0.004044261605789264,0.0350152007304132,-0.028430966194719076,-10.405800104141235,-0.9994545578956604,0.5277961194515228,-0.32000237703323364,0.019899944859679886,0.022457095167803507,-0.13986656429963445,-1.4294668093047282
12,14460000.0,0.546,0.5354000000000001,0.5415999999999999,0.545,0.0,0.0,0.0,0.0,-0.02582386389374733,0.021470507830381395,-0.14471086889505386,0.706628693984105,0.007209984585642815,0.0034758499644410154,0.707539269557366,0.00483090803027153,0.004448603373020887,0.0029531205072999,0.014365210197865963,-0.02633604034781456,-10.315420150756836,-0.9973539511362711,0.47097567717234295,-0.17018287877241772,0.02073683193893206,0.023606073893253192,-0.14519582403639714,-1.4289359130020127
13,14470000.0,0.546,0.5360999999999999,0.5419,0.5455,0.0,0.0,0.0,0.0,-0.02707662556320429,0.022324446067214013,-0.1500151287019253,0.7066038434322064,0.007117148023098707,0.0035233910267169657,0.7075647734678708,0.0016107630702511715,0.013450067723169923,0.010224121157079935,0.06584056466817856,-0.03232154808938503,-10.341157913208008,-0.948326587677002,0.4454386532306671,0.17385981231927872,0.021595959006766068,0.02478550858669434,-0.15051696441783904,-1.4282903253984827
14,14480000.0,0.546,0.5367999999999999,0.5422,0.546,0.0,0.0,0.0,0.0,-0.02832938723266125,0.02317838430404663,-0.1553193885087967,0.7065789928803077,0.0070243114605546,0.0035709320889929165,0.7075902773783758,-0.002346883760765195,0.015947161242365837,0.008855356834828854,0.035913027822971344,-0.02873024344444275,-10.34415054321289,-0.6318826228380203,0.4540502578020096,0.17529888078570366,0.02245737037627638,0.025965502897184606,-0.1558376186575991,-1.4276741325766855
15,14490000.0,0.546,0.5375,0.5425,0.5465,0.0,0.0,0.0,0.0,-0.02957763019949198,0.02397143956273794,-0.16076036661863327,0.7065541423284091,0.006931474898010492,0.0036184731512688673,0.7076157812888806,-0.007374020797821383,0.019316108897328377,0.005033024664347371,0.06105215474963188,0.019752347841858864,-10.384850025177002,-0.40274570882320404,0.37368033826351166,-0.015030048787593842,0.02325953503948466,0.027139592446391816,-0.1612941356083478,-1.4275779284800663
16,14500000.0,0.546,0.5382,0.5428,0.547,0.0,0.0,0.0,0.0,-0.030807798355817796,0.024520962908864023,-0.1667482179403305,0.7065292917765104,0.006838638335466385,0.003666014213544818,0.7076412851993854,-0.010068709962069988,0.022993946447968483,0.0029739271849393845,0.11971009522676468,-0.020350532606244087,-10.359710693359375,-0.41500982642173767,0.40058574080467224,-0.16015390679240227,0.023818020296696975,0.02828846294321946,-0.16729563926003158,-1.4293758837063424
17,14510000.0,0.546,0.5389,0.5430999999999999,0.5475,0.0,0.0,0.0,0.0,-0.03203796651214361,0.0250704862549901,-0.17273606926202775,0.7065064087510109,0.006713847552115719,0.0037108328639684864,0.7076650907595953,-0.018033134595801435,0.02987633179873228,0.003636737819761038,0.03292027302086353,-0.043095456436276436,-10.339958667755127,-0.45852993428707123,0.48299162089824677,-0.18201794661581516,0.024386062157531363,0.029446651867302668,-0.17329432987300786,-1.4309938203183432
18,14520000.0,0.546,0.5395999999999999,0.5434000000000001,0.548,0.0,0.0,0.0,0.0,-0.03326813466846943,0.02562000960111618,-0.17872392058372497,0.7064913958311081,0.0064612398855388165,0.0037447618669830263,0.7076821029186249,-0.023249099031090736,0.033036645501852036,0.0027192989364266396,-0.04189853370189667,-0.047883857041597366,-10.310629844665527,-0.5932722489039103,0.504951536655426,-0.05748089278737704,0.024986127400562098,0.030641826657345977,-0.17928236380133397,-1.4323208211125544
19,14530000.0,0.546,0.5403,0.5437000000000001,0.5485,0.0,0.0,0.0,0.0,-0.03449830282479525,0.02616953294724226,-0.1847117719054222,0.7064763829112053,0.006208632218961914,0.003778690869997566,0.7076991150776545,-0.028407340869307518,0.03654633772869905,0.0037134853967775903,0.039504327811300755,-0.029328791424632072,-10.376471042633057,-0.5691452473402023,0.3691367357969284,-0.021518446505069733,0.025591161044478384,0.031840650172596824,-0.1852692161241249,-1.4335353082319506
20,14540000.0,0.546,0.541,0.544,0.549,0.0,0.0,0.0,0.0,-0.035728470981121065,0.02671905629336834,-0.19069962322711945,0.7064613699913025,0.005956024552385013,0.0038126198730121055,0.7077161272366842,-0.03083978220820427,0.04311080276966095,0.007161458022892475,0.06224924325942993,-0.057460661977529526,-10.365697860717773,-0.4527764320373535,0.3988410532474518,0.09791708240906398,0.026201162856739728,0.03304312082465947,-0.19125488212068611,-1.4346477996461122
21,14550000.0,0.5461041666666667,0.5413125,0.5443125,0.5487916666666668,0.0,0.0,0.0,0.0,-0.03695863913744688,0.02726857963949442,-0.1966874745488167,0.7064463570713997,0.00570341688580811,0.0038465488760266453,0.7077331393957138,-0.035987292105952896,0.04597976369162401,0.003114719215470056,0.03830722812563181,-0.04848240129649639,-10.435130596160889,-0.3386119455099106,0.4690132588148117,0.1262333858758211,0.026816132603629268,0.03424923701832545,-0.19723935707075793,-1.4356675421830662
22,14560000.0,0.5462083333333333,0.541625,0.544625,0.5485833333333333,0.0,0.0,0.0,0.0,-0.0381888072937727,0.0278181029856205,-0.20267532587051393,0.7064335395892462,0.005410429070858906,0.0038736398176600537,0.7077480504910151,-0.04488541558384895,0.045770738273859024,0.0018235405441373587,0.010773908346891403,-0.03830705210566521,-10.51054573059082,-0.5100653568903605,0.3257955263058344,-0.11817813416322073,0.02744548758075155,0.03547275697273765,-0.2032189671694796,-1.436554791980252
23,14570000.0,0.5463125,0.5419375,0.5449375,0.548375,0.0,0.0,0.0,0.0,-0.039418975450098516,0.028367626331746578,-0.20866317719221117,0.7064240152637163,0.005056871033351247,0.0038904736672217646,0.707759809990724,-0.04614287490646044,0.049986506501833596,0.002454928549317022,0.0020949263125658035,0.007781339343637228,-10.448894500732422,-0.6399491354823112,0.20406724140048027,-0.13341902755200863,0.028094902783592553,0.03672196495592035,-0.20919147973826627,-1.437292846365303
24,14580000.0,0.5464166666666668,0.54225,0.54525,0.5481666666666667,0.0,0.0,0.0,0.0,-0.04064914360642433,0.028917149677872657,-0.21465102851390838,0.7064144909381866,0.004703312995843589,0.003907307516783476,0.7077715694904327,-0.04575200378894806,0.05238238722085953,0.004275222774595022,0.05027824640274048,-0.06105197221040726,-10.466253280639648,-0.2624685913324356,0.25723692774772644,0.02754814177751541,0.028750665558183966,0.03797682112872748,-0.21516222161957801,-1.437959997323713
25,14590000.0,0.5465208333333332,0.5425625,0.5455625,0.5479583333333332,0.0,0.0,0.0,0.0,-0.041750172823667525,0.02936664015054703,-0.2207886990904808,0.706404966612657,0.0043497549583359305,0.003924141366345187,0.7077833289901415,-0.04881545901298523,0.05336377459267775,0.005602690391242504,-0.007781155058182776,-0.04249689541757107,-10.446501731872559,-0.11185616999864578,0.19230932742357254,0.12700792774558067,0.029312399457970293,0.03910663500629862,-0.22127942256280556,-1.43909530040101
26,14600000.0,0.546625,0.542875,0.545875,0.54775,0.0,0.0,0.0,0.0,-0.04233464628458023,0.029415999129414557,-0.22752564668655395,0.7063954422871271,0.003996196920828273,0.0039409752159068985,0.7077950884898504,-0.04972056671977043,0.049940094351768494,-0.0005629238439723849,0.02992752566933632,-0.0754171758890152,-10.504560470581055,-0.13611865788698196,0.005976330488920198,-0.0488012358546257,0.02947942169027382,0.03971978113326482,-0.22798847853174165,-1.4422075445680154
27,14610000.0,0.5467291666666667,0.5431875,0.5461875,0.5475416666666667,0.0,0.0,0.0,0.0,-0.04291911974549294,0.02946535810828209,-0.2342625942826271,0.7063871828409342,0.0036386016827936354,0.003935058798211126,0.7078051910950587,-0.05080685640374819,0.050904675697286926,-0.0033605284212778015,0.0649427305907011,-0.04279617499560118,-10.428544282913208,-0.1355736330151558,-0.1404123641550541,-0.31109635531902313,0.02964715554376945,0.040348371822346935,-0.23469613881452492,-1.4451404288423964
28,14620000.0,0.5468333333333333,0.5435,0.5465,0.5473333333333332,0.0,0.0,0.0,0.0,-0.04350359320640564,0.02951471708714962,-0.24099954187870026,0.7063797666476324,0.0032783149777410123,0.00391397553567703,0.7078141891039335,-0.05600782111287117,0.044544558972120285,0.002043741289526224,0.0035913025494664907,-0.020350532606244087,-10.466253280639648,-0.18711674213409424,-0.21046181519826254,-0.1360363562901815,0.029817245187314323,0.04099006401759135,-0.24140258978905224,-1.4479021026698675
29,14630000.0,0.5469375,0.5438125,0.5468125,0.547125,0.0,0.0,0.0,0.0,-0.04408806666731834,0.02956407606601715,-0.2477364894747734,0.7063723504543304,0.002918028272688389,0.003892892273142934,0.7078231871128082,-0.054559617613752685,0.04515146774550279,0.0043861945159733295,0.038905778899788857,-0.06643892824649811,-10.426151275634766,-0.2571783848106861,-0.26535747945308685,0.3244096487760544,0.02999382154259736,0.041638979801564655,-0.24810830456720517,-1.4504900932570177
30,14640000.0,0.5469615384615386,0.5440384615384615,0.547,0.5470384615384615,0.0,0.0,0.0,0.0,-0.04467254012823105,0.029613435044884683,-0.2544734370708466,0.7063649342610285,0.0025577415676357653,0.003871809010608838,0.707832185121683,-0.053215516731143,0.04644369147717953,0.001374001061776653,0.04309563338756561,-0.04548965394496918,-10.483012199401855,-0.03647748877604803,-0.036597157518068954,0.13469050327936807,0.03017688476331064,0.0422951177830972,-0.25481327261931475,-1.4529179198897824
31,14650000.0,0.5468653846153845,0.5441346153846155,0.547,0.5471346153846155,0.0,0.0,0.0,0.0,-0.04525701358914375,0.02966279402375221,-0.2612103846669197,0.7063575180677267,0.002197454862583142,0.0038507257480747425,0.7078411831305578,-0.05387209448963404,0.04847550671547651,0.0008090058545349166,0.03770868154242635,-0.0574606629088521,-10.546159744262695,0.06720395805314183,0.17393042892217636,-0.22837058827280998,0.030366435004191037,0.04295847654948132,-0.2615174834159857,-1.455197738923799
32,14660000.0,0.5467692307692307,0.5442307692307693,0.547,0.5472307692307693,0.0,0.0,0.0,0.0,-0.04584148705005646,0.029712153002619743,-0.26794733226299283,0.7063488860925039,0.001835525427547206,0.0038334169851926467,0.7078510075807571,-0.0539800263941288,0.048575252294540405,0.0029449823778122663,0.08259997516870499,0.007182787638157606,-10.442312240600586,0.010354248806834221,0.13055747374892235,-0.02461724479993184,0.030564647387771614,0.04362819698820515,-0.26822082400050395,-1.457332462810274
33,14670000.0,0.5466730769230769,0.5443269230769231,0.547,0.5473269230769231,0.0,0.0,0.0,0.0,-0.04642596051096916,0.029761511981487274,-0.274684279859066,0.7063384304443995,0.0014711318975363004,0.0038217699717885503,0.7078620716929436,-0.0544212032109499,0.04832429811358452,0.0025169973572095237,0.045789120718836784,-0.021248358767479658,-10.500371217727661,-0.014192302245646715,0.0056168390437960625,0.16545788571238518,0.030772794961647195,0.04430377745022397,-0.27492323424280846,-1.4593279864460735
34,14680000.0,0.5465769230769231,0.5444230769230769,0.547,0.5474230769230769,0.0,0.0,0.0,0.0,-0.047010433971881864,0.029810870960354806,-0.28142122745513914,0.7063279747962952,0.001106738367525395,0.0038101229583844543,0.70787313580513,-0.0535566583275795,0.04754253849387169,-0.00014345848467200994,-0.035913027822971344,-0.05626356229186058,-10.479423522949219,0.02119467407464981,-0.040524922311306,0.017262550691763565,0.030987694930266724,0.044986472357091946,-0.2816248577694556,-1.4612053631004105
35,14690000.0,0.5464807692307693,0.5445192307692307,0.547,0.5475192307692307,0.0,0.0,0.0,0.0,-0.047493815422058105,0.029823383204638957,-0.2880622678995132,0.7063175191481909,0.0007423448375144894,0.0037984759449803582,0.7078841999173164,-0.05141343052188555,0.049017176032066345,0.0013673332869075239,0.06673837569542229,-0.05027806106954813,-10.432435035705566,0.13177663460373878,-0.02844187803566456,-0.09659043024294078,0.031171862021795272,0.04557588787504683,-0.28822929037242273,-1.463065513677573
36,14700000.0,0.5463846153846155,0.5446153846153845,0.547,0.5476153846153845,0.0,0.0,0.0,0.0,-0.04757282882928848,0.0296885085105896,-0.29431967973709106,0.7063070635000864,0.0003779513075035841,0.0037868289315762618,0.7078952640295029,-0.05505932867527008,0.05206514522433281,0.0027985579799860716,0.10055648535490036,-0.06703747808933258,-10.413581848144531,0.07179298500219981,0.11460101107756296,0.04261222295463085,0.031212534378060392,0.045770544960332164,-0.29444777347715473,-1.465187082120693
37,14710000.0,0.5462884615384614,0.5447115384615385,0.547,0.5477115384615385,0.0,0.0,0.0,0.0,-0.04765184223651886,0.02955363381654024,-0.3005770915746689,0.7062979707351098,2.4870376644405332e-05,0.003767974083670057,0.7079044626309321,-0.05013329659899076,0.05224514193832874,0.005077331055266162,0.06763619929552078,-0.004788223064451813,-10.39323091506958,-0.0414249524474144,0.19443900138139725,0.16176189854741096,0.031251352078473266,0.04597027176272034,-0.30066724472647427,-1.4672282295522765
38,14720000.0,0.5461923076923076,0.5448076923076923,0.547,0.5478076923076923,0.0,0.0,0.0,0.0,-0.04773085564374924,0.02941875912249088,-0.3068345034122467,0.7062897865588849,-0.0003206688214469558,0.0037443140127624455,0.7079124175585233,-0.04993696138262749,0.049706581979990005,0.0006472989916801453,0.05267243832349777,0.004788585007190704,-10.384851455688477,0.10539936336378257,0.0070715894301732335,0.050099700689315796,0.03129057730199071,0.046175487567400385,-0.3068873386817304,-1.469186348990885
39,14730000.0,0.5460961538461538,0.5449038461538462,0.547,0.5479038461538462,0.0,0.0,0.0,0.0,-0.047809869050979614,0.029283884428441525,-0.31309191524982455,0.7062816023826599,-0.0006662080195383169,0.0037206539418548346,0.7079203724861145,-0.05334164698918661,0.04529618596037229,0.0015932307190572224,0.045789113733917475,-0.08080413192510605,-10.436326503753662,-0.037624791730195284,-0.2655123956501484,-0.19560834020376205,0.03133549996110899,0.04638719520059083,-0.3131073240747743,-1.4710493556687583
40,14740000.0,0.546,0.545,0.547,0.548,0.0,0.0,0.0,0.0,-0.04788888245820999,0.029149009734392165,-0.3193493270874023,0.706273418206435,-0.0010117472176296779,0.0036969938709472236,0.7079283274137057,-0.052663449198007584,0.045145176351070404,0.003323487937450409,0.12928691506385803,-0.11851281672716141,-10.413581848144531,-0.1434526890516281,-0.30425219237804413,-0.024675637483596802,0.03138612042268614,0.04660539431464009,-0.3193271919132845,-1.472822732317445
41,14750000.0,0.546,0.5452,0.5468,0.548,0.0,0.0,0.0,0.0,-0.04796789586544037,0.02901413504034281,-0.32560673892498015,0.70626523403021,-0.001357286415721039,0.0036733338000396122,0.7079362823412969,-0.053189593677719436,0.03975685127079487,-0.0006546797230839729,0.08559271693229675,0.01496394444257021,-10.452486991882324,-0.060400051064789295,-0.2743556797504425,-0.043363213539123535,0.03144243905466545,0.0468300845442551,-0.32554693320458056,-1.4745115498012074
42,14760000.0,0.546,0.5454000000000001,0.5465999999999999,0.548,0.0,0.0,0.0,0.0,-0.048046909272670746,0.02887926034629345,-0.331864150762558,0.7062587887048721,-0.0017056338547263294,0.0036408160619127252,0.7079422026872635,-0.054956406354904175,0.041774116456508636,0.0008886740542948246,0.02992752566933632,-0.096964992582798,-10.384851455688477,-0.08557795112331708,-0.20191641400257745,-0.08824674785137177,0.03150136040564969,0.04706694332544584,-0.331766032281607,-1.4761296091452705
43,14770000.0,0.546,0.5455999999999999,0.5464000000000001,0.548,0.0,0.0,0.0,0.0,-0.04812592267990112,0.02874438565224409,-0.3381215626001358,0.7062549516558647,-0.0020581936551025137,0.0035950118229569248,0.7079450711607933,-0.059396098678310714,0.040789540857076645,0.00039384422901396954,0.03411737456917763,-0.01137227937579155,-10.414180755615234,-0.26787057518959045,0.054851990193128586,0.055683448910713196,0.03156114694128586,0.04731916822967946,-0.33798421457403277,-1.4776858037587466
44,14780000.0,0.546,0.5458,0.5462,0.548,0.0,0.0,0.0,0.0,-0.0482049360871315,0.028609510958194733,-0.34437897443771365,0.7062511146068573,-0.002410753455478698,0.003549207584001124,0.7079479396343231,-0.057537991553545,0.04097485542297363,-0.0017928145825862885,0.009576808661222458,-0.0287302415817976,-10.412385940551758,-0.10207422822713852,0.09419786557555199,-0.032873548567295074,0.03162636124099026,0.04757839609503836,-0.3442022254737065,-1.4791705173558465
45,14790000.0,0.546,0.546,0.546,0.548,0.0,0.0,0.0,0.0,-0.048107224479317666,0.028345148861408234,-0.3506730264425278,0.7062472775578499,-0.0027633132558548823,0.003503403345045323,0.7079508081078529,-0.05397337923447291,0.04560399428009987,-0.00032732714316807687,0.03531447984278202,-0.02244545894791372,-10.477027177810669,0.16235565021634102,0.151105722412467,-0.10358463262673467,0.03156741973996571,0.047668174655329805,-0.35045765886955854,-1.480963908234166
46,14800000.0,0.546,0.5462,0.5458,0.548,0.0,0.0,0.0,0.0,-0.04730261281132698,0.02756283715367317,-0.35711363911628724,0.7062434405088425,-0.0031158730562310666,0.0034575991060895226,0.7079536765813828,-0.05386509373784065,0.04472775757312775,0.0012676827609539032,0.0694318488240242,-0.09457078576087952,-10.484209060668945,0.21950038398305577,0.1659658675392469,0.05328352159510056,0.030995662208352245,0.047059280959787675,-0.3568642490719276,-1.484158142951312
47,14810000.0,0.546,0.5464000000000001,0.5455999999999999,0.548,0.0,0.0,0.0,0.0,-0.0464980011433363,0.02678052544593811,-0.3635542517900467,0.7062357813119888,-0.0034414856927469373,0.0034091376001015306,0.7079600244760513,-0.05685857559243838,0.03803692509730657,0.0038400740983585515,0.05027823895215988,-0.04129979945719242,-10.491992473602295,-0.008762684650719166,-0.169776888564229,0.192264836281538,0.030414736192796357,0.04644490403456669,-0.36327506157326933,-1.487267422250973
48,14820000.0,0.546,0.5465999999999999,0.5454000000000001,0.548,0.0,0.0,0.0,0.0,-0.04569338947534561,0.02599821373820305,-0.36999486446380614,0.706225574016571,-0.0037491335533559322,0.0033589045827587447,0.7079686919848124,-0.0607219822704792,0.04013706371188164,0.005468643736094236,0.020350715145468712,-0.09097950160503387,-10.430341720581055,-0.19619664053122202,-0.30214399596055347,0.18036330863833427,0.02982882111321981,0.0458287167628151,-0.3696890118340149,-1.490284489545528
49,14830000.0,0.546,0.5468,0.5452,0.548,0.0,0.0,0.0,0.0,-0.044888777807354924,0.025215902030467988,-0.3764354771375656,0.7062153667211533,-0.004056781413964927,0.0033086715654159584,0.7079773594935735,-0.05201552559932073,0.03914930919806162,-0.000381088233552874,0.034416649490594864,-0.0541686350479722,-10.419267177581787,-0.07046033069491386,-0.048360217828303576,-0.037061107344925404,0.029247566275784787,0.04521905210006033,-0.3761041514450469,-1.4931879763910931
50,14840000.0,0.546,0.547,0.545,0.548,0.0,0.0,0.0,0.0,-0.04408416613936424,0.024433590322732925,-0.3828760898113251,0.7062051594257355,-0.004364429274573922,0.0032584385480731726,0.7079860270023346,-0.04558345675468445,0.03458068147301674,-4.55926638096571e-05,0.009576808661222458,-0.03351864591240883,-10.496182441711426,0.48358607292175293,-0.12603242322802544,-0.23736334592103958,0.02867097266743565,0.044615911587132684,-0.38252047290013746,-1.4959834355993014
51,14850000.0,0.5450999999999999,0.5470999999999999,0.545,0.5473,0.0,0.0,0.0,0.0,-0.043279554471373556,0.023651278614997863,-0.38931670248508454,0.7061949521303177,-0.004672077135182917,0.0032082055307303867,0.7079946945110956,-0.042467428371310234,0.03231394477188587,0.0011788367216164868,0.10534486919641495,-0.10175340250134468,-10.377069473266602,0.6739649027585983,-0.3304935544729233,-0.08066514320671558,0.028099041277360706,0.0440192967517524,-0.3889379686911993,-1.4986760681525715
52,14860000.0,0.5442,0.5472,0.545,0.5465999999999999,0.0,0.0,0.0,0.0,-0.042474942803382876,0.022868966907262804,-0.395757315158844,0.7061840891838074,-0.004920252997960363,0.0031744469555893113,0.7080039211681911,-0.04130464792251587,0.033142924308776855,0.0012209127889946103,0.05267243646085262,-0.05027805920690298,-10.400413036346436,0.3918057978153229,-0.219171949972709,0.06308410316705704,0.027507762841072994,0.04338676256295568,-0.3953629671122439,-1.5013322977126897
53,14870000.0,0.5433,0.5473,0.545,0.5459,0.0,0.0,0.0,0.0,-0.04167033113539219,0.02208665519952774,-0.40219792783260344,0.7061730623245239,-0.005153560861279922,0.003144806990998664,0.70801328761237,-0.03975237843890985,0.03107458259910345,0.002270303685994198,0.01795651577413082,-0.04309545271098614,-10.414778709411621,0.12253771349787712,-0.046331449411809444,0.08976691029965878,0.026914259066291798,0.04274860151689357,-0.40179048205217655,-1.5039104430851926
54,14880000.0,0.5424000000000001,0.5474000000000001,0.545,0.5452,0.0,0.0,0.0,0.0,-0.0408657194674015,0.02130434349179268,-0.40863854050636295,0.7061620354652405,-0.005386868724599481,0.0031151670264080167,0.7080226540565491,-0.03790054842829704,0.03107587620615959,0.0026440571527928114,0.03830723464488983,-0.09576789289712906,-10.364501953125,0.1290710171063741,-0.07341904689868291,0.06984972953796387,0.026324434622498668,0.042115254571917136,-0.4082188998720142,-1.5063994168124983
55,14890000.0,0.5415,0.5475,0.545,0.5445,0.0,0.0,0.0,0.0,-0.04000461868941784,0.020444443970918654,-0.41491120398044584,0.706151008605957,-0.005620176587919039,0.003085527061817369,0.7080320205007281,-0.036689059187968574,0.02928624985118707,0.0021351795876398683,0.06883330643177032,-0.12629396840929985,-10.437523365020752,0.1850523054599762,-0.08163689263164997,0.01430541230365634,0.0256584909594678,0.04142984280327541,-0.4144814391580538,-1.5089701815256842
56,14900000.0,0.5405999999999999,0.5475999999999999,0.545,0.5438,0.0,0.0,0.0,0.0,-0.03891756147146225,0.019274193197488784,-0.42051207065582275,0.7061399817466736,-0.005853484451238598,0.003055887097226722,0.708041386944907,-0.0347735732793808,0.02370271272957325,0.0004015546292066574,0.05027824640274048,0.008379889652132988,-10.438718795776367,0.18334407111008963,-0.23830444614092508,-0.057123806327581406,0.024676733302651674,0.04052136906003895,-0.4200780292978692,-1.5121205435562781
57,14910000.0,0.5397000000000001,0.5477000000000001,0.545,0.5430999999999999,0.0,0.0,0.0,0.0,-0.03783050425350666,0.018103942424058914,-0.42611293733119965,0.7061309841546145,-0.006080533716488968,0.003022912000729279,0.7080487256700342,-0.03310060749451319,0.021500591188669205,-0.0002460400864947587,0.07302315905690193,-0.0754171796143055,-10.378267288208008,0.24295323342084885,-0.4403942674398422,-0.10767858847975731,0.023692158665894098,0.03961548884489651,-0.4256764375492286,-1.5151960219306273
58,14920000.0,0.5388,0.5478,0.545,0.5424000000000001,0.0,0.0,0.0,0.0,-0.036743447035551074,0.016933691650629044,-0.43171380400657655,0.7061301036314531,-0.0062825485894625836,0.0029765963766046548,0.7080479535189542,-0.037508774548769,0.024560347199440002,-0.0029956093057990074,0.005985504016280174,-0.05386936292052269,-10.35133171081543,0.038549378514289856,-0.15759586542844772,-0.14745882526040077,0.022686339243604164,0.03870715163066375,-0.431278014712442,-1.518242177194566
59,14930000.0,0.5379,0.5479,0.545,0.5417000000000001,0.0,0.0,0.0,0.0,-0.03565638981759548,0.01576344087719917,-0.4373146706819534,0.7061292231082916,-0.006484563462436199,0.00293028075248003,0.7080471813678741,-0.035319471110900245,0.021706091860930126,-0.001663751279314359,0.04788403771817684,-0.08319832757115364,-10.503364562988281,-0.14556889608502388,0.114922646433115,-0.16013336181640625,0.02168300148524803,0.03780274359770747,-0.4368807453937443,-1.5212056221341517
60,14940000.0,0.537,0.548,0.545,0.541,0.0,0.0,0.0,0.0,-0.034569332599639895,0.014593190103769303,-0.4429155373573303,0.7061283425851301,-0.006686578335409815,0.0028839651283554054,0.7080464092167941,-0.035454846918582916,0.01640315167605877,0.0007260560523718596,0.07541736215353012,-0.03411719517316669,-10.445902347564697,-0.005762260407209396,-0.13132205978035927,0.006701670587062836,0.020682145832292137,0.03690226589745388,-0.4424846267022153,-1.5240893843045793
61,14950000.0,0.5360999999999999,0.5463,0.5430999999999999,0.54,0.0,0.0,0.0,0.0,-0.0334822753816843,0.013422939330339431,-0.4485164040327072,0.7061274620619687,-0.0068885932083834304,0.002837649504230781,0.7080456370657141,-0.029816637126108013,0.017421326289574306,-0.0008419675286859274,0.04668693616986275,-0.03770849946886301,-10.420764923095703,0.16257759556174278,-0.31705016270279884,0.10972422640770674,0.019683772726949354,0.036005719678020055,-0.44808965574609655,-1.526896348428908
62,14960000.0,0.5352,0.5445999999999999,0.5412,0.539,0.0,0.0,0.0,0.0,-0.032395218163728715,0.012252688556909561,-0.4541172707080841,0.7061267154557365,-0.007011829542794398,0.0027825570931392057,0.7080453634262085,-0.02586483024060726,0.015378614887595177,-0.0017076089279726148,0.10055648535490036,-0.007182424888014793,-10.341754913330078,0.36378758152325946,-0.18715959787368774,-0.03966794162988663,0.018631665071538173,0.03506826709575983,-0.4537016106774552,-1.5297534878728576
63,14970000.0,0.5343,0.5429,0.5393,0.538,0.0,0.0,0.0,0.0,-0.03130816094577313,0.011082437783479691,-0.459718137383461,0.7061260023287365,-0.007115371242564704,0.0027252704853058924,0.7080452144145966,-0.02525197807699442,0.009217042165497938,-0.0023634277555781105,0.024540568701922894,0.016759593039751053,-10.317214012145996,0.3320346623659134,-0.27510344237089157,-0.13649721816182137,0.01756641763656605,0.03412229465280393,-0.4593156617742427,-1.532570195986444
64,14980000.0,0.5334000000000001,0.5412,0.5374000000000001,0.537,0.0,0.0,0.0,0.0,-0.030221103727817535,0.00991218701004982,-0.46531900405883786,0.7061252892017365,-0.00721891294233501,0.0026679838774725795,0.7080450654029846,-0.022610405460000038,0.0036573391407728195,-0.0016901405761018395,0.045489830896258354,-0.02513894042931497,-10.178350448608398,0.1939684897661209,-0.4572519560654958,-0.04396864275137584,0.01650191059286858,0.033178874322664295,-0.4649303081415863,-1.5353179207280518
65,14990000.0,0.5325,0.5395,0.5355,0.536,0.0,0.0,0.0,0.0,-0.029135397896170617,0.008683482753112912,-0.4697810560464859,0.7061245760747364,-0.007322454642105315,0.0026106972696392666,0.7080449163913727,-0.022375258927543957,0.004959657943497102,-0.0008961343361685674,0.02214636653661728,-0.061051974073052406,-10.073005676269531,0.14572888612747192,-0.39792658761143684,0.08588845655322075,0.015363692702454761,0.03223195286071578,-0.4694076833411827,-1.538078050864632
66,15000000.0,0.5316,0.5378,0.5336,0.535,0.0,0.0,0.0,0.0,-0.028055097609758377,0.007220964562147856,-0.4696878492832184,0.7061238629477364,-0.007425996341875621,0.0025534106618059532,0.7080447673797607,-0.01826479844748974,0.0008321299101226032,-0.00019467613310553133,0.03950432687997818,0.007182778790593147,-9.94910717010498,0.18414190411567688,-0.21275106072425842,0.1051578198870023,0.013927961394306698,0.03126181728824417,-0.469334227754679,-1.541129036177583
67,15010000.0,0.5307000000000001,0.5360999999999999,0.5317000000000001,0.534,0.0,0.0,0.0,0.0,-0.026974797323346136,0.005758446371182799,-0.46959464251995087,0.7061221355741675,-0.007510721281340177,0.0024986236292699523,0.7080458131703463,-0.012606681634982426,-0.0019428085167116174,0.002662080509859758,-0.008379706181585789,-0.001795478689018637,-9.892842769622803,0.3819424659013748,-0.3035670220851898,0.14292540587484837,0.012481467579395472,0.030277486178919653,-0.4692626284724361,-1.5442045534287339
68,15020000.0,0.5297999999999999,0.5344000000000001,0.5297999999999999,0.533,0.0,0.0,0.0,0.0,-0.0258944970369339,0.004295928180217743,-0.46950143575668335,0.7061163512143221,-0.007520179179581729,0.0024538348979231987,0.7080516381697222,-0.00484498729929328,-0.003847687039524317,0.004388588480651379,0.04189853370189667,0.0059856753796339035,-9.798270225524902,0.5955196022987366,-0.2667015418410301,0.20120200514793396,0.010991933740004102,0.029236517667484897,-0.4691961014163265,-1.5473734478313086
69,15030000.0,0.5289,0.5327000000000001,0.5279,0.532,0.0,0.0,0.0,0.0,-0.02481419675052166,0.002833409989252686,-0.46940822899341583,0.7061105668544769,-0.007529637077823281,0.002409046166576445,0.7080574631690979,-0.008153787426029643,-0.00679746619425714,0.0007924304227344692,0.02094926405698061,-0.031124457716941833,-9.728838443756104,0.3982709087431431,-0.23740743845701218,0.008063003420829773,0.009502373322134099,0.02819558531235842,-0.46912958964925644,-1.550543769052964
70,15040000.0,0.528,0.531,0.526,0.531,0.0,0.0,0.0,0.0,-0.023733896464109422,0.0013708917982876295,-0.4693150222301483,0.7061047824946317,-0.007539094976064834,0.0023642574352296915,0.7080632881684736,-0.0060692960396409035,-0.004493663087487221,-0.002886035479605198,-0.028730420395731926,-0.02274474687874317,-9.801861763000488,0.11932242413361867,-0.14619235942761105,-0.1986459642648697,0.00801278633105559,0.027154689149262345,-0.46906309316511563,-1.5537154539388423
71,15050000.0,0.5287999999999999,0.5314000000000001,0.5270999999999999,0.5315,0.0,0.0,0.0,0.0,-0.02265359617769718,-9.16263926774262e-05,-0.4692218154668808,0.7060989981347864,-0.007548552874306386,0.002319468703882938,0.7080691131678495,-0.005147954371447365,-0.007828325343628725,0.00024400872644037008,-0.014365210197865963,-0.05207372084259987,-9.704898357391357,0.0756743373349309,0.0028906557708978653,-0.15310197696089745,0.006523172772042395,0.026113829213918173,-0.4689966119577846,-1.5568884391698825
72,15060000.0,0.5296,0.5317999999999999,0.5282,0.532,0.0,0.0,0.0,0.0,-0.02157329589128494,-0.0015541445836424837,-0.4691286087036133,0.7061022520065308,-0.007544667460024357,0.002246673767721014,0.7080661313874381,-0.012272126972675323,-0.009564279578626156,-0.00015841459389775991,0.020350713282823563,-0.002394032198935747,-9.727643013000488,-0.19522482715547085,-0.19098223000764847,0.10713924840092659,0.005005525732746845,0.025082814207153345,-0.46892992131012107,-1.5601223744510166
73,15070000.0,0.5304000000000001,0.5322,0.5293,0.5325,0.0,0.0,0.0,0.0,-0.020492995604872704,-0.0030166627746075394,-0.46903540194034576,0.7061077654361725,-0.007537446217611432,0.0021668772803552982,0.70806094791208,-0.010147761708746353,-0.011266555171459913,-0.00418731562482814,0.08080431446433067,-0.05207372456789017,-9.708488464355469,-0.25161831825971603,-0.16315460950136185,-0.164781479164958,0.0034809200446119085,0.024054198538299442,-0.46886303984940597,-1.5633722907828633
74,15080000.0,0.5312,0.5326,0.5304000000000001,0.533,0.0,0.0,0.0,0.0,-0.019412695318460467,-0.004479180965572597,-0.46894219517707825,0.7061132788658142,-0.007530224975198507,0.002087080792989582,0.7080557644367218,-0.008624658919870853,-0.012170801870524883,-0.0030888691544532776,0.0011971013154834509,-0.0502780769020319,-9.698913097381592,-0.04871001094579697,-0.09988501109182835,-0.10416032746434212,0.0019563652184171705,0.02302552021425723,-0.46879600711534514,-1.566623181478132
75,15090000.0,0.532,0.533,0.5315,0.5335,0.0,0.0,0.0,0.0,-0.01830389984883368,-0.005867326622828841,-0.4690918111801147,0.7061187922954559,-0.0075230037327855825,0.0020072843056238654,0.7080505809613636,-0.010128020774573088,-0.011146283398071924,0.001344131228203575,0.03770868480205536,-0.038905611261725426,-9.781513214111328,0.08989352732896805,-0.032316919416189194,0.10550112463533878,0.0005094256715416643,0.021969967604497286,-0.46897083768386255,-1.5697100642168456
76,15100000.0,0.5327999999999999,0.5334000000000001,0.5326,0.534,0.0,0.0,0.0,0.0,-0.017081123646348714,-0.006957982145249843,-0.4702127182483673,0.7061243057250977,-0.007515782490372658,0.0019274878182581493,0.7080453974860055,-0.0094699552282691,-0.015516416169703007,0.001347632729448378,0.007182604633271694,-0.05746066942811012,-9.791088104248047,0.017064623534679413,-0.11909565577904382,0.2458881139755249,-0.0006273812409453954,0.020807262366721598,-0.47011364892491303,-1.5721308570088797
77,15110000.0,0.5336,0.5337999999999999,0.5337000000000001,0.5345,0.0,0.0,0.0,0.0,-0.01585834744386375,-0.008048637667670847,-0.4713336253166199,0.7061274920900663,-0.007492519624065608,0.0018404137808829546,0.7080427035689354,-0.007663837866857648,-0.021300738832602896,0.003075819249109675,0.03711012564599514,-0.04010271094739437,-9.825804710388184,0.06602170132100582,-0.4429081529378891,0.1250075325369835,-0.0017798603912346882,0.019638969374227162,-0.4712566148669895,-1.574573147898749
78,15120000.0,0.5344000000000001,0.5342,0.5347999999999999,0.535,0.0,0.0,0.0,0.0,-0.014635571241378785,-0.009139293190091848,-0.47245453238487245,0.7061213701963425,-0.007405090262182057,0.0017242295434698462,0.7080499678850174,-0.007108330726623535,-0.025014957413077354,0.00460956571623683,0.041299980133771896,-0.004788230522535741,-9.887455463409424,0.08103251705567042,-0.5309734344482422,0.1269247978925705,-0.0029945770708730696,0.018447689869089727,-0.4723999651606358,-1.5771353132078925
79,15130000.0,0.5352,0.5346,0.5359,0.5355,0.0,0.0,0.0,0.0,-0.01341279503889382,-0.01022994871251285,-0.473575439453125,0.7061152483026186,-0.007317660900298506,0.001608045306056738,0.7080572322010994,-0.006444039288908243,-0.032573082484304905,0.0030622194365908704,0.028131870552897453,-0.031124455854296684,-9.897032737731934,0.0005434928461909294,-0.5191943198442459,0.11056100693531334,-0.0042099934521045565,0.017256543969796048,-0.47354275359843045,-1.5796865114861696
80,15140000.0,0.536,0.535,0.537,0.536,0.0,0.0,0.0,0.0,-0.012190018836408854,-0.011320604234933853,-0.47469634652137754,0.7061091264088949,-0.007230231538414955,0.0014918610686436296,0.7080644965171814,0.00035065022530034184,-0.032515380531549454,0.002348231617361307,0.002394201699644327,-0.10654181241989136,-9.894039154052734,0.17157695939143497,-0.42824650804201764,-0.05500835863252481,-0.005426109300636856,0.016065531970583267,-0.4746849798709346,-1.5822267979733524
81,15150000.0,0.5361041666666667,0.5353125,0.5375208333333332,0.5358958333333332,0.0,0.0,0.0,0.0,-0.01096724263392389,-0.012411259757354855,-0.4758172535896301,0.706103004515171,-0.007142802176531404,0.0013756768312305212,0.7080717608332634,-0.0015818975225556642,-0.03032264206558466,0.0017982457648031414,0.08469489775598049,0.013168286997824907,-9.984121322631836,0.34324441850185394,-0.03083910420536995,-0.13428681157529354,-0.006642924381946019,0.014874654165832397,-0.47582664366864275,-1.5847562278280407
82,15160000.0,0.5362083333333333,0.535625,0.5380416666666668,0.5357916666666668,0.0,0.0,0.0,0.0,-0.009744466431438923,-0.013501915279775858,-0.4769381606578827,0.7061008165280024,-0.00703984471814086,0.0012745707208523527,0.7080751756827036,0.0030053139198571444,-0.030006634071469307,-0.0008136777905747294,0.040701426565647125,-0.062249068170785904,-9.9838228225708,0.2348836064338684,0.1236596331000328,-0.13914557794729868,-0.007860898873832595,0.013663151371510564,-0.4769683322783487,-1.5872758008526437
83,15170000.0,0.5363125,0.5359375,0.5385625,0.5356875,0.0,0.0,0.0,0.0,-0.008521690228953958,-0.01459257080219686,-0.47805906772613527,0.7061045294006666,-0.006913595114989827,0.001196081801026594,0.7080728163321813,0.008291311290425558,-0.02913771631817023,-0.00020519881703269982,0.026336222887039185,-0.0622490756213665,-9.954493045806885,0.40684597194194794,0.04096980206668377,-0.18117691576480865,-0.009080220047663371,0.012420426880302295,-0.47811015174335936,-1.5897859435789845
84,15180000.0,0.5364166666666668,0.53625,0.5390833333333332,0.5355833333333333,0.0,0.0,0.0,0.0,-0.007298914026468994,-0.015683226324617862,-0.47917997479438784,0.7061082422733307,-0.006787345511838794,0.0011175928812008351,0.7080704569816589,0.007713786792010069,-0.027039090171456337,0.0024755275808274746,-0.016759416088461876,0.014365386217832565,-9.953893661499023,0.26612574234604836,0.09108375199139118,-0.028129376471042633,-0.01030017866224782,0.011177527175519876,-0.47925114003854413,-1.5922852546271302
85,15190000.0,0.5365208333333332,0.5365625,0.5396041666666668,0.5354791666666667,0.0,0.0,0.0,0.0,-0.006043471088632941,-0.016671665646135807,-0.48058906853199007,0.7061119551459948,-0.00666109590868776,0.0010391039613750763,0.7080680976311365,0.007766851224005222,-0.028386574238538742,0.0009353984690581758,0.05207389569841325,-0.07032951340079308,-9.967063665390015,0.05273845233023167,0.11837789951823652,0.08683986659161747,-0.011415512204616797,0.009903786780599803,-0.480678605596579,-1.5945406055519267
86,15200000.0,0.536625,0.536875,0.540125,0.535375,0.0,0.0,0.0,0.0,-0.004657361209392547,-0.017251240164041517,-0.483150908946991,0.706115668018659,-0.006534846305536727,0.0009606150415493175,0.7080657382806143,0.0052728247828781605,-0.029988959431648254,0.0015469935024157166,0.020350715145468712,-0.11970991641283035,-10.043678283691406,-0.06827863057454428,-0.060342396919926,-0.006047387296954792,-0.01211093142671649,0.008507098509203358,-0.4832546447717901,-1.595852261668776
87,15210000.0,0.5367291666666667,0.5371875,0.5406458333333333,0.5352708333333333,0.0,0.0,0.0,0.0,-0.003271251330152154,-0.01783081468194723,-0.4857127493619919,0.7061204239726067,-0.00638788822107017,0.0008747835527174175,0.7080624178051949,0.006580377230420709,-0.03368472990890344,-0.0030302816497472422,0.10803836025297642,-0.10444687865674496,-9.976640462875366,-0.10023364797234535,-0.23404139280319214,-0.10399890877306461,-0.012827121308440015,0.007100850347456198,-0.4858297611362402,-1.5971926965083059
88,15220000.0,0.5368333333333333,0.5375,0.5411666666666668,0.5351666666666668,0.0,0.0,0.0,0.0,-0.00188514145091176,-0.018410389199852942,-0.4882745897769928,0.7061258753140768,-0.006227124482393265,0.0007840570178814232,0.7080584565798441,0.005423512309789658,-0.03429660201072693,-0.000679295277222991,0.06524199992418289,-0.02454039640724659,-10.028116226196289,-0.05533940531313419,-0.23092524707317352,-0.030207723379135132,-0.01355790765295569,0.005687974651034468,-0.4884039325715597,-1.5985488197613462
89,15230000.0,0.5369375,0.5378125,0.5416875,0.5350625,0.0,0.0,0.0,0.0,-0.000499031571671367,-0.018989963717758657,-0.4908364301919937,0.7061313266555468,-0.006066360743716359,0.000693330483045429,0.7080544953544935,0.006366848945617676,-0.03803373562792937,0.0014993279279830554,0.07242460548877716,-0.08319834247231483,-10.026917457580566,-0.01929432898759842,-0.20792024582624435,0.13193811103701591,-0.014290485614461834,0.004274573060631608,-0.4909773712474931,-1.5998943117666433
90,15240000.0,0.537,0.5380769230769231,0.5418461538461539,0.5351153846153845,0.0,0.0,0.0,0.0,0.000887078307569027,-0.019569538235664367,-0.49339827060699465,0.7061367779970169,-0.0059055970050394535,0.0006026039482094347,0.7080505341291428,0.010911296121776104,-0.03793167229741812,0.0007731059158686548,0.010175358038395643,-0.004788227379322052,-10.029312133789062,0.15222538759311038,-0.1669861051874856,0.13183673843741417,-0.015024854960020522,0.0028606460807406144,-0.49355007613201946,-1.6012293403534055
91,15250000.0,0.537,0.5382692307692307,0.5414615384615385,0.5354038461538462,0.0,0.0,0.0,0.0,0.002273188186809421,-0.020149112753570078,-0.49596011102199555,0.706142229338487,-0.005744833266362548,0.0005118774133734405,0.708046572903792,0.016670243348926306,-0.03486444288864732,-0.001245705658220686,0.08200141787528992,-0.047285309876315296,-10.1011381149292,0.41633883863687515,0.054447753704153,-0.06532655004411936,-0.015761015456203294,0.0014461942167911554,-0.49612204619304445,-1.6025540698901375
92,15260000.0,0.537,0.5384615384615385,0.5410769230769231,0.5356923076923076,0.0,0.0,0.0,0.0,0.0036592980660498133,-0.020728687271475792,-0.49852195143699646,0.7061409779957363,-0.005576562202934708,0.0004504630674741098,0.7080491440636771,0.017440851777791977,-0.03344760462641716,2.087443135678768e-05,-0.02274492010474205,-0.06943167746067047,-10.073603630065918,0.37989824761947,0.1785349597533544,-0.07620934893687566,-0.016483662754066472,5.579243854353724e-06,-0.49869378766655914,-1.603837972877653
93,15270000.0,0.537,0.5386538461538461,0.5406923076923076,0.5359807692307693,0.0,0.0,0.0,0.0,0.005045407945290207,-0.021308261789381503,-0.5010837918519974,0.7061380509819303,-0.005406414308319134,0.00039637676880894493,0.7080533483198711,0.014363104632745188,-0.0321421946088473,8.850940503180027e-05,0.08319852501153946,-0.029328796081244946,-10.100539207458496,0.002728184685111046,0.14339087530970573,0.06881299894303083,-0.017204156609465143,-0.0014422443502785012,-0.5012648019302188,-1.6051043532434413
94,15280000.0,0.537,0.5388461538461539,0.5403076923076924,0.5362692307692307,0.0,0.0,0.0,0.0,0.006431517824530601,-0.021887836307287217,-0.5036456322669983,0.7061351239681244,-0.005236266413703561,0.0003422904701437801,0.7080575525760651,0.017273956909775734,-0.028074724599719048,-0.0021238981280475855,0.03471592999994755,-0.03351865289732814,-10.1196928024292,-0.05481485277414322,0.2128889560699463,-0.027956681326031685,-0.01792630969350504,-0.0028908968146416727,-0.5038349481566544,-1.6063610511019937
95,15290000.0,0.537,0.5390384615384615,0.539923076923077,0.5365576923076923,0.0,0.0,0.0,0.0,0.007780102845281363,-0.02241991613060236,-0.506186808347702,0.7061321969543185,-0.0050661185190879875,0.0002882041714786153,0.708061756832259,0.017949589528143406,-0.030145147815346718,0.0009241678635589778,0.01765723852440715,-0.03920488618314266,-10.082881450653076,0.10430673509836197,0.152624255977571,-0.0036360099911689897,-0.01860268383760696,-0.004303123866431452,-0.5063829489497944,-1.6075162087536452
96,15300000.0,0.537,0.5392307692307693,0.5395384615384614,0.5368461538461539,0.0,0.0,0.0,0.0,0.008978588432073593,-0.02276201717555523,-0.508645327091217,0.7061292699405125,-0.004895970624472413,0.00023411787281345047,0.708065961088453,0.017932463437318802,-0.03208531439304352,0.0039128512144088745,0.05027824267745018,-0.03830705536529422,-10.043078899383545,0.11429342875878015,-0.04427085444331169,0.14082049826780954,-0.01909092236564501,-0.0055671458461699404,-0.5088451010314731,-1.6082968792308387
97,15310000.0,0.537,0.5394230769230769,0.5391538461538462,0.5371346153846155,0.0,0.0,0.0,0.0,0.010177074018865823,-0.023104118220508098,-0.511103845834732,0.7061261372132734,-0.004727150398221883,0.0001860141932080627,0.7080703160979531,0.020092546629408996,-0.03168935949603716,0.003719315010433396,0.10235211998224258,-0.011372283101081848,-10.026917934417725,0.06412990018725395,-0.15299680456519127,0.18721205741167068,-0.01957547260595444,-0.0068353277800148535,-0.5113067508079918,-1.609062820819602
98,15320000.0,0.537,0.5396153846153845,0.5387692307692307,0.5374230769230769,0.0,0.0,0.0,0.0,0.011375559605658054,-0.023446219265460966,-0.5135623645782471,0.706122181632302,-0.004563640845431523,0.00016184098984178325,0.7080752741206776,0.018634140491485596,-0.028081079944968224,0.0034488392993807793,0.05267243832349777,-0.06584037840366364,-10.044873237609863,0.06965942401438951,0.02360362807909648,0.04807796577612559,-0.020040358385174713,-0.008117855610935162,-0.5137683479382329,-1.609783165574112
99,15330000.0,0.537,0.5398076923076924,0.5383846153846155,0.5377115384615385,0.0,0.0,0.0,0.0,0.012574045192450284,-0.02378832031041384,-0.5160208833217621,0.7061182260513306,-0.004400131292641163,0.00013766778647550382,0.7080802321434021,0.01943929959088564,-0.027616447769105434,4.361373915647468e-05,-0.0029927524738013744,0.002394377253949642,-10.061632633209229,-0.014318411471322179,0.21130847558379173,-0.11244597658514977,-0.020506583792550374,-0.00940134141378999,-0.5162292491645273,-1.6104992450276556
100,15340000.0,0.537,0.54,0.538,0.538,0.0,0.0,0.0,0.0,0.013772530779242516,-0.024130421355366707,-0.5184794020652771,0.7061142704703591,-0.0042366217398508025,0.00011349458310922439,0.7080851901661266,0.021438248455524445,-0.023210905492305756,-0.0010746211046352983,0.03292027302086353,-0.07122732885181904,-10.035297393798828,0.04702266429861386,0.24094324310620627,-0.20149614413579306,-0.0209741487221079,-0.010685784684717228,-0.5186894536710198,-1.6112111220353693
101,15350000.0,0.537,0.5397000000000001,0.5382,0.5380999999999999,0.0,0.0,0.0,0.0,0.014971016366034746,-0.024472522400319576,-0.5209379208087921,0.7061103148893877,-0.004073112187060443,8.932137974294496e-05,0.7080901481888511,0.023338104598224163,-0.024349940940737724,0.00042254357443501545,0.016759412363171577,-0.06584037840366364,-10.053853034973145,0.18511659279465675,0.22889232262969017,-0.049659714102745056,-0.02144305306773556,-0.011971184919093865,-0.5211489606419062,-1.6119188582431063
102,15360000.0,0.537,0.5394000000000001,0.5384000000000001,0.5382,0.0,0.0,0.0,0.0,0.016169501952826976,-0.024814623445272445,-0.5233964395523071,0.7061112948826381,-0.0038954013559435096,8.613650425104424e-05,0.708090100969587,0.022830091416835785,-0.024761876091361046,0.0026723206974565983,0.022146365139633417,-0.07601573131978512,-10.02212905883789,0.1594732627272606,0.048979527937869236,0.0932522565126419,-0.021908105765847882,-0.01328393964067941,-0.5236073177686931,-1.6126126536327818
103,15370000.0,0.537,0.5390999999999999,0.5385999999999999,0.5383,0.0,0.0,0.0,0.0,0.017367987539619205,-0.025156724490225314,-0.5258549582958222,0.706113508769444,-0.003714140205244933,8.819871072773822e-05,0.7080888024398259,0.02180952796091636,-0.022403539158403873,-0.0013591849710792303,-0.014963761728722602,-0.06703747250139713,-10.04367733001709,0.03335738182067871,0.015338710742071271,0.06416106969118118,-0.022373107446897602,-0.01460453870016751,-0.5260647267420397,-1.6132999046706475
104,15380000.0,0.537,0.5388,0.5388,0.5384000000000001,0.0,0.0,0.0,0.0,0.018566473126411437,-0.025498825535178182,-0.5283134770393372,0.70611572265625,-0.003532879054546356,9.026091720443219e-05,0.7080875039100647,0.025052908807992935,-0.024933025240898132,-0.0040346477180719376,-0.005386953242123127,-0.0275331461452879,-10.071808815002441,0.07245568931102753,0.02574448535839717,-0.1779505511124929,-0.022839345435423947,-0.015926414047991985,-0.5285212843554692,-1.6139831295305447
105,15390000.0,0.537,0.5385,0.539,0.5385,0.0,0.0,0.0,0.0,0.019700609110295773,-0.025761817023158072,-0.5308000934123993,0.706117936543056,-0.0033516179038477795,9.232312368112616e-05,0.7080862053803035,0.030422551557421684,-0.02546895171205203,-0.0004918374664460616,0.02513912133872509,-0.008678806741954759,-10.0640287399292,0.35509536415338516,-0.11645239032804966,-0.15676707215607166,-0.023227395850631067,-0.017185308115070637,-0.5310044048069681,-1.6145108388119873
106,15400000.0,0.537,0.5382,0.5392,0.5385999999999999,0.0,0.0,0.0,0.0,0.020577346682548524,-0.02570837028324604,-0.5333991003036499,0.7061201504298619,-0.0031703567531492028,9.438533015782014e-05,0.7080849068505424,0.03013292234390974,-0.02579290745779872,0.0012962721521034837,0.06584055721759796,-0.02094908873550594,-10.105925559997559,0.28575175503889716,-0.12639017403125763,0.09739840030670166,-0.023299031012081056,-0.018188489858286708,-0.5335965533708906,-1.6144327423730893
107,15410000.0,0.537,0.5379,0.5394000000000001,0.5387000000000001,0.0,0.0,0.0,0.0,0.021454084254801272,-0.025654923543334006,-0.5359981071949005,0.7061212171207775,-0.0029879884836687283,0.00010153205188213509,0.7080847052010623,0.0328560140915215,-0.023233203450217843,-0.0013338733115233485,0.05267243832349777,-0.032920099794864655,-10.113706111907959,0.011750198900699615,-0.0373307466506958,0.07070248946547508,-0.023369030879375464,-0.01919763716248866,-0.5361881784849176,-1.6143523989094903
108,15420000.0,0.537,0.5375999999999999,0.5395999999999999,0.5388,0.0,0.0,0.0,0.0,0.022330821827054023,-0.025601476803421973,-0.5385971140861511,0.7061176950281317,-0.002801191739060662,0.00012901683459693396,0.7080888910727068,0.03379201143980026,-0.02015959471464157,0.0005316114984452724,0.03651157580316067,-0.0257374937646091,-10.025720596313477,0.14364679902791977,0.2195216615994771,-0.030555295447508492,-0.023428493516006156,-0.020226757561596906,-0.5387791167231254,-1.6142533625011348
109,15430000.0,0.537,0.5373,0.5398,0.5389,0.0,0.0,0.0,0.0,0.023207559399306774,-0.02554803006350994,-0.5411961209774018,0.7061141729354858,-0.0026143949944525957,0.00015650161731173284,0.7080930769443512,0.02974927208075921,-0.020772252852718037,0.0007346011116169393,0.08798690885305405,-0.04908096231520176,-10.067619323730469,0.008105149492621422,0.24103894643485546,0.07738696411252022,-0.0234891488740922,-0.021257446743344156,-0.5413694811296094,-1.6141575181247547
110,15440000.0,0.537,0.537,0.54,0.539,0.0,0.0,0.0,0.0,0.024084296971559525,-0.025494583323597907,-0.5437951278686524,0.70611065084284,-0.002427598249844529,0.00018398640002653173,0.7080972628159956,0.03219609335064888,-0.020022377371788025,0.005739678628742695,0.07302317023277283,0.021547991782426834,-10.050861358642578,-0.0983518436551094,0.06537287558118503,0.12847726543744406,-0.023550997016583284,-0.022289704226057413,-0.5439592705882865,-1.6140648201482564
111,15450000.0,0.5367000000000001,0.5374000000000001,0.5397000000000001,0.5389,0.0,0.0,0.0,0.0,0.024961034543812273,-0.025441136583685874,-0.546394134759903,0.7061071287501942,-0.002240801505236463,0.0002114711827413306,0.7081014486876401,0.03043282652894656,-0.024798418395221233,0.0014708612967903418,0.07182606123387814,-0.06284762546420097,-10.03410005569458,0.04965338297188282,-0.10572445206344128,0.09315626742318273,-0.023614038006580462,-0.023323529526870168,-0.5465484839831101,-1.6139752238210536
112,15460000.0,0.5364000000000001,0.5378,0.5394000000000001,0.5388,0.0,0.0,0.0,0.0,0.025837772116065028,-0.02538768984377384,-0.5489931416511535,0.7061169881087083,-0.0020662838808045937,0.000262886459285465,0.7080920613729037,0.0320049487054348,-0.021909428760409355,-0.003438069950789213,-0.03950432687997818,-0.06464327871799469,-9.994596481323242,0.09741686098277569,-0.009949207305908203,-0.1870783749036491,-0.023649211217831194,-0.024368956952025764,-0.549137927862789,-1.6138357994761015
113,15470000.0,0.5360999999999999,0.5382,0.5390999999999999,0.5387000000000001,0.0,0.0,0.0,0.0,0.026714509688317775,-0.025334243103861807,-0.5515921485424041,0.7061301928300124,-0.0018948360364167737,0.00032028435928693327,0.708079280761572,0.03297559171915054,-0.01681888320793708,-0.003996092438076933,0.038905778899788857,-0.06404472328722477,-10.035896301269531,0.14643731713294983,0.22107728198170662,-0.35060890391469,-0.0236779306689068,-0.025418557080498744,-0.5517269617054177,-1.613686038186398
114,15480000.0,0.5357999999999999,0.5385999999999999,0.5388,0.5385999999999999,0.0,0.0,0.0,0.0,0.027591247260570526,-0.025280796363949774,-0.5541911554336548,0.7061433975513165,-0.0017233881920289535,0.0003776822592884016,0.7080665001502404,0.03176570683717728,-0.010818339884281158,-0.003875924274325371,0.047884032130241394,-0.07661428302526474,-10.04128360748291,0.053360290825366974,0.43444254000981647,-0.1525167760749658,-0.023707419119134338,-0.02646983157007149,-0.5543153788482408,-1.613539106229409
115,15490000.0,0.5355,0.539,0.5385,0.5385,0.0,0.0,0.0,0.0,0.02838457569479942,-0.02531400300562382,-0.5567043423652649,0.7061566022726206,-0.0015519403476411332,0.00043508015928986983,0.7080537195389087,0.031173365501066048,-0.015767409776647884,-0.0015684984779606261,-0.031124623492360115,-0.04788386449217796,-10.00417423248291,-0.09738978184759617,0.31703563593328,0.0637398986145854,-0.023824347051311312,-0.027439273800329327,-0.5568174700395504,-1.613556882810681
116,15500000.0,0.5352,0.5394000000000001,0.5382,0.5384000000000001,0.0,0.0,0.0,0.0,0.028844267576932908,-0.025693823173642157,-0.558874249458313,0.7061698069939246,-0.0013804925032533132,0.0004924780592913381,0.7080409389275771,0.033357677049934864,-0.016805718652904034,-0.0018790689791785553,-0.013168109580874443,-0.020350538194179535,-10.073603630065918,0.01609574258327484,-0.17284250631928444,0.08674883749336004,-0.02428866096161204,-0.028076217388936883,-0.5589761875365732,-1.6142210602272598
117,15510000.0,0.5349,0.5398,0.5379,0.5383,0.0,0.0,0.0,0.0,0.02930395945906639,-0.0260736433416605,-0.5610441565513611,0.7061766758561134,-0.0012287090939935297,0.0005575563263846561,0.7080343216657639,0.03435084177181125,-0.012256815563887358,-0.0009871284346445464,0.0014963765279389918,-0.020350543200038373,-10.04667043685913,0.11678898707032204,-0.036728739738464355,0.04568765591830015,-0.0247324345871293,-0.028704665779037544,-0.5611358584132335,-1.6148434808930885
118,15520000.0,0.5346,0.5402,0.5375999999999999,0.5382,0.0,0.0,0.0,0.0,0.029763651341199876,-0.02645346350967884,-0.5632140636444092,0.7061793208122253,-0.0010900353081524372,0.000627754838205874,0.7080318133036295,0.03183550387620926,-0.011807102710008621,0.0015487103955820203,-0.023942016065120697,-0.04189836233854294,-9.988609313964844,0.020175114274024963,0.22231542319059372,0.1580089069902897,-0.025162537407567985,-0.029327810246055706,-0.563296075637256,-1.6154368308784983
119,15530000.0,0.5343,0.5405999999999999,0.5373,0.5380999999999999,0.0,0.0,0.0,0.0,0.03022334322333336,-0.026833283677697183,-0.5653839707374573,0.7061819657683372,-0.0009513615223113447,0.0006979533500270918,0.7080293049414953,0.03206339726845423,-0.00992165474841992,0.0007748803909635171,0.0029927525902166963,-0.023941844701766968,-9.990405559539795,-0.08102746121585369,0.18347376212477684,0.1762191839516163,-0.025593053909428266,-0.029952236591625755,-0.5654558952871277,-1.6160263780642994
120,15540000.0,0.534,0.541,0.537,0.538,0.0,0.0,0.0,0.0,0.03068303510546684,-0.02721310384571552,-0.5675538778305054,0.7061846107244492,-0.0008126877364702523,0.0007681518618483096,0.708026796579361,0.027360398322343826,-0.00595691055059433,-0.00029662784072570503,-0.0694318488240242,-0.06584037840366364,-9.965866088867188,-0.22209708392620087,0.1853533759713173,0.04970065876841545,-0.026023984056449293,-0.030577944514664206,-0.5676153167345556,-1.6166121669171207
121,15550000.0,0.5344000000000001,0.5405,0.5369,0.5380999999999999,0.0,0.0,0.0,0.0,0.031142726987600327,-0.027592924013733863,-0.5697237849235535,0.7061872556805611,-0.0006740139506291598,0.0008383503736695275,0.7080242882172266,0.02639174523452918,-0.008756705249349277,-0.002466262740199454,-0.004189853556454182,-0.02394184225704521,-10.049662590026855,-0.3486732691526413,0.1374189257621765,-0.06763899698853493,-0.026455327812625398,-0.031204933713595614,-0.5697743393513868,-1.6171942412220661
